STATE_ABRV,STATE,ZONE,CWA,NAME,STATE_ZONE,COUNTY,FIPS,TIME_zone,FE_AREA,LAT,LON
NM,NEW MEXICO,201,ABQ,Northwest Plateau,NM201,McKinley,35031,M,nw,36.427,-108.4064
NM,NEW MEXICO,201,ABQ,Northwest Plateau,NM201,San Juan,35045,M,nw,36.427,-108.4064
NM,NEW MEXICO,202,ABQ,Chuska Mountains,NM202,McKinley,35031,M,nw,36.0409,-108.9296
NM,NEW MEXICO,202,ABQ,Chuska Mountains,NM202,San Juan,35045,M,nw,36.0409,-108.9296
NM,NEW MEXICO,203,ABQ,Far Northwest Highlands,NM203,Rio Arriba,35039,M,nc,36.6585,-107.1028
NM,NEW MEXICO,203,ABQ,Far Northwest Highlands,NM203,Sandoval,35043,M,nc,36.6585,-107.1028
NM,NEW MEXICO,203,ABQ,Far Northwest Highlands,NM203,San Juan,35045,M,nc,36.6585,-107.1028
NM,NEW MEXICO,204,ABQ,Northwest Highlands,NM204,McKinley,35031,M,nc,36.0067,-107.5052
NM,NEW MEXICO,204,ABQ,Northwest Highlands,NM204,Rio Arriba,35039,M,nc,36.0067,-107.5052
NM,NEW MEXICO,204,ABQ,Northwest Highlands,NM204,Sandoval,35043,M,nc,36.0067,-107.5052
NM,NEW MEXICO,204,ABQ,Northwest Highlands,NM204,San Juan,35045,M,nc,36.0067,-107.5052
NM,NEW MEXICO,205,ABQ,West Central Plateau,NM205,Catron,35003,M,wc,35.0288,-108.817
NM,NEW MEXICO,205,ABQ,West Central Plateau,NM205,Cibola,35006,M,wc,35.0288,-108.817
NM,NEW MEXICO,205,ABQ,West Central Plateau,NM205,McKinley,35031,M,wc,35.0288,-108.817
NM,NEW MEXICO,206,ABQ,West Central Mountains,NM206,Catron,35003,M,nc,35.0709,-108.0574
NM,NEW MEXICO,206,ABQ,West Central Mountains,NM206,Cibola,35006,M,nc,35.0709,-108.0574
NM,NEW MEXICO,206,ABQ,West Central Mountains,NM206,McKinley,35031,M,nc,35.0709,-108.0574
NM,NEW MEXICO,206,ABQ,West Central Mountains,NM206,Sandoval,35043,M,nc,35.0709,-108.0574
NM,NEW MEXICO,206,ABQ,West Central Mountains,NM206,Socorro,35053,M,nc,35.0709,-108.0574
NM,NEW MEXICO,207,ABQ,West Central Highlands,NM207,Bernalillo,35001,M,nc,34.9677,-107.3538
NM,NEW MEXICO,207,ABQ,West Central Highlands,NM207,Cibola,35006,M,nc,34.9677,-107.3538
NM,NEW MEXICO,207,ABQ,West Central Highlands,NM207,McKinley,35031,M,nc,34.9677,-107.3538
NM,NEW MEXICO,207,ABQ,West Central Highlands,NM207,Sandoval,35043,M,nc,34.9677,-107.3538
NM,NEW MEXICO,207,ABQ,West Central Highlands,NM207,Socorro,35053,M,nc,34.9677,-107.3538
NM,NEW MEXICO,207,ABQ,West Central Highlands,NM207,Valencia,35061,M,nc,34.9677,-107.3538
NM,NEW MEXICO,208,ABQ,Southwest Mountains,NM208,Catron,35003,M,cc,33.8571,-108.317
NM,NEW MEXICO,208,ABQ,Southwest Mountains,NM208,Socorro,35053,M,cc,33.8571,-108.317
NM,NEW MEXICO,209,ABQ,San Francisco River Valley,NM209,Catron,35003,M,wc,33.509,-108.8601
NM,NEW MEXICO,210,ABQ,Tusas Mountains Including Chama,NM210,Rio Arriba,35039,M,nc,36.7058,-106.2539
NM,NEW MEXICO,210,ABQ,Tusas Mountains Including Chama,NM210,Taos,35055,M,nc,36.7058,-106.2539
NM,NEW MEXICO,211,ABQ,Jemez Mountains,NM211,Los Alamos,35028,M,nc,35.9021,-106.5974
NM,NEW MEXICO,211,ABQ,Jemez Mountains,NM211,Rio Arriba,35039,M,nc,35.9021,-106.5974
NM,NEW MEXICO,211,ABQ,Jemez Mountains,NM211,Sandoval,35043,M,nc,35.9021,-106.5974
NM,NEW MEXICO,212,ABQ,Glorieta Mesa Including Glorieta Pass,NM212,San Miguel,35047,M,nc,35.516,-105.694
NM,NEW MEXICO,212,ABQ,Glorieta Mesa Including Glorieta Pass,NM212,Santa Fe,35049,M,nc,35.516,-105.694
NM,NEW MEXICO,213,ABQ,Northern Sangre de Cristo Mountains,NM213,Colfax,35007,M,ne,36.7161,-105.3905
NM,NEW MEXICO,213,ABQ,Northern Sangre de Cristo Mountains,NM213,Taos,35055,M,ne,36.7161,-105.3905
NM,NEW MEXICO,214,ABQ,Southern Sangre de Cristo Mountains,NM214,Colfax,35007,M,nc,35.9865,-105.5998
NM,NEW MEXICO,214,ABQ,Southern Sangre de Cristo Mountains,NM214,Mora,35033,M,nc,35.9865,-105.5998
NM,NEW MEXICO,214,ABQ,Southern Sangre de Cristo Mountains,NM214,Rio Arriba,35039,M,nc,35.9865,-105.5998
NM,NEW MEXICO,214,ABQ,Southern Sangre de Cristo Mountains,NM214,San Miguel,35047,M,nc,35.9865,-105.5998
NM,NEW MEXICO,214,ABQ,Southern Sangre de Cristo Mountains,NM214,Santa Fe,35049,M,nc,35.9865,-105.5998
NM,NEW MEXICO,214,ABQ,Southern Sangre de Cristo Mountains,NM214,Taos,35055,M,nc,35.9865,-105.5998
NM,NEW MEXICO,215,ABQ,East Slopes Sangre de Cristo Mountains,NM215,Colfax,35007,M,ne,36.2296,-105.1554
NM,NEW MEXICO,215,ABQ,East Slopes Sangre de Cristo Mountains,NM215,Mora,35033,M,ne,36.2296,-105.1554
NM,NEW MEXICO,215,ABQ,East Slopes Sangre de Cristo Mountains,NM215,San Miguel,35047,M,ne,36.2296,-105.1554
NM,NEW MEXICO,216,ABQ,Upper Rio Grande Valley,NM216,Rio Arriba,35039,M,nc,36.6232,-105.7524
NM,NEW MEXICO,216,ABQ,Upper Rio Grande Valley,NM216,Taos,35055,M,nc,36.6232,-105.7524
NM,NEW MEXICO,217,ABQ,Espanola Valley,NM217,Rio Arriba,35039,M,nc,36.1335,-106.0931
NM,NEW MEXICO,217,ABQ,Espanola Valley,NM217,Santa Fe,35049,M,nc,36.1335,-106.0931
NM,NEW MEXICO,217,ABQ,Espanola Valley,NM217,Taos,35055,M,nc,36.1335,-106.0931
NM,NEW MEXICO,218,ABQ,Santa Fe Metro Area,NM218,Bernalillo,35001,M,nc,35.5304,-106.1074
NM,NEW MEXICO,218,ABQ,Santa Fe Metro Area,NM218,Sandoval,35043,M,nc,35.5304,-106.1074
NM,NEW MEXICO,218,ABQ,Santa Fe Metro Area,NM218,Santa Fe,35049,M,nc,35.5304,-106.1074
NM,NEW MEXICO,219,ABQ,Middle Rio Grande Valley/Albuquerque Metro Area,NM219,Bernalillo,35001,M,nc,35.0023,-106.7444
NM,NEW MEXICO,219,ABQ,Middle Rio Grande Valley/Albuquerque Metro Area,NM219,Cibola,35006,M,nc,35.0023,-106.7444
NM,NEW MEXICO,219,ABQ,Middle Rio Grande Valley/Albuquerque Metro Area,NM219,Sandoval,35043,M,nc,35.0023,-106.7444
NM,NEW MEXICO,219,ABQ,Middle Rio Grande Valley/Albuquerque Metro Area,NM219,Torrance,35057,M,nc,35.0023,-106.7444
NM,NEW MEXICO,219,ABQ,Middle Rio Grande Valley/Albuquerque Metro Area,NM219,Valencia,35061,M,nc,35.0023,-106.7444
NM,NEW MEXICO,220,ABQ,Lower Rio Grande Valley,NM220,Socorro,35053,M,cc,33.9223,-106.8008
NM,NEW MEXICO,221,ABQ,Sandia/Manzano Mountains Including Edgewood,NM221,Bernalillo,35001,M,nc,34.9556,-106.3043
NM,NEW MEXICO,221,ABQ,Sandia/Manzano Mountains Including Edgewood,NM221,Sandoval,35043,M,nc,34.9556,-106.3043
NM,NEW MEXICO,221,ABQ,Sandia/Manzano Mountains Including Edgewood,NM221,Santa Fe,35049,M,nc,34.9556,-106.3043
NM,NEW MEXICO,221,ABQ,Sandia/Manzano Mountains Including Edgewood,NM221,Torrance,35057,M,nc,34.9556,-106.3043
NM,NEW MEXICO,221,ABQ,Sandia/Manzano Mountains Including Edgewood,NM221,Valencia,35061,M,nc,34.9556,-106.3043
NM,NEW MEXICO,222,ABQ,Estancia Valley,NM222,Bernalillo,35001,M,nc,34.789,-105.9856
NM,NEW MEXICO,222,ABQ,Estancia Valley,NM222,Santa Fe,35049,M,nc,34.789,-105.9856
NM,NEW MEXICO,222,ABQ,Estancia Valley,NM222,Torrance,35057,M,nc,34.789,-105.9856
NM,NEW MEXICO,223,ABQ,Central Highlands,NM223,San Miguel,35047,M,nc,34.8354,-105.5657
NM,NEW MEXICO,223,ABQ,Central Highlands,NM223,Santa Fe,35049,M,nc,34.8354,-105.5657
NM,NEW MEXICO,223,ABQ,Central Highlands,NM223,Torrance,35057,M,nc,34.8354,-105.5657
NM,NEW MEXICO,224,ABQ,South Central Highlands,NM224,Lincoln,35027,M,cc,34.1329,-106.1646
NM,NEW MEXICO,224,ABQ,South Central Highlands,NM224,Socorro,35053,M,cc,34.1329,-106.1646
NM,NEW MEXICO,224,ABQ,South Central Highlands,NM224,Torrance,35057,M,cc,34.1329,-106.1646
NM,NEW MEXICO,224,ABQ,South Central Highlands,NM224,Valencia,35061,M,cc,34.1329,-106.1646
NM,NEW MEXICO,225,ABQ,Upper Tularosa Valley,NM225,Lincoln,35027,M,cc,33.6587,-106.0398
NM,NEW MEXICO,225,ABQ,Upper Tularosa Valley,NM225,Socorro,35053,M,cc,33.6587,-106.0398
NM,NEW MEXICO,226,ABQ,South Central Mountains,NM226,Lincoln,35027,M,cc,33.5868,-105.5869
NM,NEW MEXICO,227,ABQ,Johnson and Bartlett Mesas Including Raton Pass,NM227,Colfax,35007,M,ne,36.7769,-104.3106
NM,NEW MEXICO,227,ABQ,Johnson and Bartlett Mesas Including Raton Pass,NM227,Union,35059,M,ne,36.7769,-104.3106
NM,NEW MEXICO,228,ABQ,Far Northeast Highlands,NM228,Colfax,35007,M,ne,36.256,-104.5899
NM,NEW MEXICO,228,ABQ,Far Northeast Highlands,NM228,Mora,35033,M,ne,36.256,-104.5899
NM,NEW MEXICO,229,ABQ,Northeast Highlands,NM229,San Miguel,35047,M,ne,35.5317,-105.0208
NM,NEW MEXICO,230,ABQ,Union County,NM230,Union,35059,M,ne,36.4519,-103.4227
NM,NEW MEXICO,231,ABQ,Harding County,NM231,Harding,35021,M,ne,35.858,-103.8199
NM,NEW MEXICO,232,ABQ,Eastern San Miguel County,NM232,San Miguel,35047,M,ne,35.4457,-104.2579
NM,NEW MEXICO,233,ABQ,Guadalupe County,NM233,Guadalupe,35019,M,ec,34.8633,-104.7907
NM,NEW MEXICO,234,ABQ,Quay County,NM234,Quay,35037,M,ec,35.1043,-103.5497
NM,NEW MEXICO,235,ABQ,Curry County,NM235,Curry,35009,M,ec,34.5741,-103.3468
NM,NEW MEXICO,236,ABQ,Roosevelt County,NM236,Roosevelt,35041,M,ec,34.0213,-103.4802
NM,NEW MEXICO,237,ABQ,De Baca County,NM237,De Baca,35011,M,ec,34.3424,-104.412
NM,NEW MEXICO,238,ABQ,Chaves County Plains,NM238,Chaves,35005,M,se,33.498,-104.3114
NM,NEW MEXICO,239,ABQ,Eastern Lincoln County,NM239,Lincoln,35027,M,cc,33.7904,-105.1628
NM,NEW MEXICO,240,ABQ,Southwest Chaves County,NM240,Chaves,35005,M,se,32.8182,-105.0963
NM,NEW MEXICO,241,ABQ,San Agustin Plains and Adjacent Lowlands,NM241,Catron,35003,M,cc,33.9792,-107.5332
NM,NEW MEXICO,241,ABQ,San Agustin Plains and Adjacent Lowlands,NM241,Socorro,35053,M,cc,33.9792,-107.5332
MN,MINNESOTA,39,ABR,Traverse,MN039,Traverse,27155,C,wc,45.7721,-96.4716
MN,MINNESOTA,46,ABR,Big Stone,MN046,Big Stone,27011,C,wc,45.4261,-96.411
SD,SOUTH DAKOTA,3,ABR,Corson,SD003,Corson,46031,M,nc,45.7087,-101.1969
SD,SOUTH DAKOTA,4,ABR,Campbell,SD004,Campbell,46021,C,nc,45.7711,-100.0517
SD,SOUTH DAKOTA,5,ABR,McPherson,SD005,McPherson,46089,C,nc,45.7664,-99.2215
SD,SOUTH DAKOTA,6,ABR,Brown,SD006,Brown,46013,C,ne,45.5898,-98.3516
SD,SOUTH DAKOTA,7,ABR,Marshall,SD007,Marshall,46091,C,ne,45.7586,-97.5986
SD,SOUTH DAKOTA,8,ABR,Roberts,SD008,Roberts,46109,C,ne,45.6296,-96.9461
SD,SOUTH DAKOTA,9,ABR,Walworth,SD009,Walworth,46129,C,nc,45.4299,-100.0316
SD,SOUTH DAKOTA,10,ABR,Edmunds,SD010,Edmunds,46045,C,nc,45.4188,-99.2156
SD,SOUTH DAKOTA,11,ABR,Day,SD011,Day,46037,C,ne,45.3672,-97.6075
SD,SOUTH DAKOTA,15,ABR,Dewey,SD015,Dewey,46041,M,nc,45.1566,-100.8719
SD,SOUTH DAKOTA,16,ABR,Potter,SD016,Potter,46107,C,nc,45.0645,-99.9573
SD,SOUTH DAKOTA,17,ABR,Faulk,SD017,Faulk,46049,C,nc,45.0711,-99.1453
SD,SOUTH DAKOTA,18,ABR,Spink,SD018,Spink,46115,C,ne,44.9381,-98.3463
SD,SOUTH DAKOTA,19,ABR,Clark,SD019,Clark,46025,C,ne,44.8582,-97.7295
SD,SOUTH DAKOTA,20,ABR,Codington,SD020,Codington,46029,C,ne,44.9778,-97.1886
SD,SOUTH DAKOTA,21,ABR,Grant,SD021,Grant,46051,C,ne,45.172,-96.7678
SD,SOUTH DAKOTA,22,ABR,Hamlin,SD022,Hamlin,46057,C,ne,44.6737,-97.1883
SD,SOUTH DAKOTA,23,ABR,Deuel,SD023,Deuel,46039,C,ne,44.76,-96.668
SD,SOUTH DAKOTA,33,ABR,Stanley,SD033,Stanley,46117,CM,cc,44.4123,-100.7359
SD,SOUTH DAKOTA,34,ABR,Sully,SD034,Sully,46119,C,cc,44.7155,-100.1322
SD,SOUTH DAKOTA,35,ABR,Hughes,SD035,Hughes,46065,C,cc,44.389,-99.9961
SD,SOUTH DAKOTA,36,ABR,Hyde,SD036,Hyde,46069,C,cc,44.5474,-99.4871
SD,SOUTH DAKOTA,37,ABR,Hand,SD037,Hand,46059,C,cc,44.5478,-99.005
SD,SOUTH DAKOTA,45,ABR,Jones,SD045,Jones,46075,C,cc,43.9604,-100.6896
SD,SOUTH DAKOTA,48,ABR,Lyman,SD048,Lyman,46085,C,cc,43.8958,-99.8474
SD,SOUTH DAKOTA,51,ABR,Buffalo,SD051,Buffalo,46017,C,cc,44.0763,-99.205
AK,ALASKA,701,AFC,Anchorage / Eagle River (lower elevations),AK701,Anchorage Municipality,2020,A,,61.2548,-149.7447
AK,ALASKA,702,AFC,Anchorage Hillside / Upper Eagle River,AK702,Anchorage Municipality,2020,A,,61.2344,-149.2535
AK,ALASKA,703,AFC,East Turnagain Arm,AK703,Anchorage Municipality,2020,A,,61.0624,-148.8023
AK,ALASKA,704,AFC,Portage,AK704,Anchorage Municipality,2020,A,,60.7892,-148.8563
AK,ALASKA,711,AFC,Lower Matanuska Valley,AK711,Matanuska-Susitna Borough,2170,A,,61.6829,-148.2199
AK,ALASKA,712,AFC,Hatcher Pass,AK712,Matanuska-Susitna Borough,2170,A,,62.2507,-147.7116
AK,ALASKA,713,AFC,Sutton / Upper Matanuska Valley,AK713,Matanuska-Susitna Borough,2170,A,,61.859,-149.4391
AK,ALASKA,714,AFC,Eureka / Tahneta Pass,AK714,Matanuska-Susitna Borough,2170,A,,61.5111,-149.5513
AK,ALASKA,721,AFC,Southern Kachemak Bay,AK721,Kenai Peninsula Borough,2122,A,,60.746,-147.9191
AK,ALASKA,722,AFC,Southwest Kenai Peninsula,AK722,Kenai Peninsula Borough,2122,A,,60.6187,-150.7315
AK,ALASKA,723,AFC,Northwest Kenai Peninsula,AK723,Kenai Peninsula Borough,2122,A,,59.8552,-149.8885
AK,ALASKA,724,AFC,Skilak Lake/Eastern Sterling Highway,AK724,Kenai Peninsula Borough,2122,A,,59.4054,-151.5295
AK,ALASKA,725,AFC,Southern Kenai Mtns/Seward,AK725,Kenai Peninsula Borough,2122,A,,60.6052,-149.5591
AK,ALASKA,726,AFC,Interior Kenai Peninsula,AK726,Kenai Peninsula Borough,2122,A,,60.1383,-150.4017
AK,ALASKA,727,AFC,Turnagain Pass,AK727,Kenai Peninsula Borough,2122,A,,60.5452,-148.9872
AK,ALASKA,728,AFC,West Prince William Sound and Whittier,AK728,Chugach Census Area,2063,A,,59.9549,-151.2863
AK,ALASKA,729,AFC,Tyonek,AK729,Kenai Peninsula Borough,2122,A,,60.3611,-152.9914
AK,ALASKA,731,AFC,Valdez,AK731,Chugach Census Area,2063,A,,61.0907,-146.4061
AK,ALASKA,732,AFC,Thompson Pass,AK732,Chugach Census Area,2063,A,,61.0074,-145.3405
AK,ALASKA,735,AFC,Cordova,AK735,Chugach Census Area,2063,A,,60.6122,-144.5265
AK,ALASKA,741,AFC,Northern Copper Valley,AK741,Copper River Census Area,2066,A,,62.9275,-145.6042
AK,ALASKA,742,AFC,Western Copper Valley,AK742,Copper River Census Area,2066,h,,61.2083,-142.7146
AK,ALASKA,743,AFC,Central Copper Valley,AK743,Copper River Census Area,2066,A,,61.4016,-145.1324
AK,ALASKA,744,AFC,Ernestine,AK744,Copper River Census Area,2066,A,,62.2811,-143.1427
AK,ALASKA,745,AFC,Western,AK745,Matanuska-Susitna Borough,2170,A,,61.6585,-150.4014
AK,ALASKA,746,AFC,Southern,AK746,Matanuska-Susitna Borough,2170,A,,62.2259,-149.997
AK,ALASKA,747,AFC,Central,AK747,Matanuska-Susitna Borough,2170,A,,62.9726,-148.3312
AK,ALASKA,748,AFC,Northern ,AK748,Matanuska-Susitna Borough,2170,A,,62.1981,-151.7157
AK,ALASKA,749,AFC,Southern Copper Valley,AK749,Copper River Census Area,2066,A,,61.8626,-146.2081
AK,ALASKA,750,AFC,Tok Cutoff,AK750,Copper River Census Area,2066,A,,61.5735,-144.6167
AK,ALASKA,751,AFC,McCarthy,AK751,Copper River Census Area,2066,A,,62.1845,-145.1955
AK,ALASKA,752,AFC,Kuskokwim Valley West,AK752,Bethel Census Area,2050,A,,61.5119,-154.5589
AK,ALASKA,753,AFC,Kuskokwim Valley East,AK753,Bethel Census Area,2050,A,,61.4858,-157.3076
AK,ALASKA,754,AFC,Lime Village,AK754,Bethel Census Area,2050,A,,61.464,-159.4909
AK,ALASKA,755,AFC,Kuskokwim Delta Coast and Nunivak Island ,AK755,Bethel Census Area,2050,A,,60.3165,-163.7872
AK,ALASKA,756,AFC,Inland Kuskokwim Delta,AK756,Bethel Census Area,2050,A,,60.681,-161.2797
AK,ALASKA,757,AFC,Western Capes,AK757,Bethel Census Area,2050,A,,59.056,-161.4634
AK,ALASKA,761,AFC,Central Alaska Peninsula,AK761,Lake and Peninsula Borough,2164,A,,60.0561,-157.9868
AK,ALASKA,762,AFC,Northern Alaska Peninsula,AK762,Lake and Peninsula Borough,2164,A,,57.815,-156.8591
AK,ALASKA,763,AFC,Bristol Bay Borough (Naknek and King Salmon),AK763,Bristol Bay Borough,2060,A,,58.7436,-156.7001
AK,ALASKA,764,AFC,Northern Bristol Bay Coast,AK764,Dillingham Census Area,2070,A,,59.6939,-155.161
AK,ALASKA,765,AFC,Inland Bristol Bay,AK765,Dillingham Census Area,2070,A,,58.9824,-159.0291
AK,ALASKA,766,AFC,Lake Iliamna / Nanvarpak / Nila Vena,AK766,Lake and Peninsula Borough,2164,A,,56.5814,-158.8736
AK,ALASKA,771,AFC,Kodiak Island Northeast,AK771,Kodiak Island Borough,2150,A,,57.8834,-152.7946
AK,ALASKA,772,AFC,Kodiak Island Southwest,AK772,Kodiak Island Borough,2150,A,,57.5852,-154.3415
AK,ALASKA,773,AFC,Chignik,AK773,Lake and Peninsula Borough,2164,A,,56.4241,-158.2939
AK,ALASKA,781,AFC,Southern Alaska Peninsula,AK781,Aleutians East Borough,2013,A,,55.4039,-161.8623
AK,ALASKA,785,AFC,Eastern Aleutians,AK785,Aleutians West Census Area,2016,A,,53.6028,-167.2076
AK,ALASKA,787,AFC,Central Aleutians,AK787,Aleutians West Census Area,2016,A,,52.0651,-175.0805
AK,ALASKA,791,AFC,Western Aleutians,AK791,Aleutians West Census Area,2016,h,,52.3658,175.5395
AK,ALASKA,795,AFC,Pribilof Islands,AK795,Aleutians West Census Area,2016,A,,56.9151,-169.9829
AK,ALASKA,801,AFG,Western Arctic Coast,AK801,North Slope,2185,A,,69.0125,-164.1064
AK,ALASKA,802,AFG,Northwest Arctic Coast,AK802,North Slope,2185,A,,70.3019,-159.508
AK,ALASKA,803,AFG,Northern Arctic Coast,AK803,North Slope,2185,A,,70.6873,-155.3712
AK,ALASKA,804,AFG,Central Beaufort Sea Coast,AK804,North Slope,2185,A,,70.2069,-149.5617
AK,ALASKA,805,AFG,Eastern Beaufort Sea Coast,AK805,North Slope,2185,A,,69.8543,-144.0064
AK,ALASKA,806,AFG,Western Arctic Plains,AK806,North Slope,2185,A,,69.4448,-157.04
AK,ALASKA,807,AFG,Howard Pass and the Delong Mountains,AK807,North Slope,2185,A,,68.4515,-159.5118
AK,ALASKA,808,AFG,Central Arctic Plains,AK808,North Slope,2185,A,,69.3952,-150.0441
AK,ALASKA,809,AFG,Central Brooks Range,AK809,North Slope,2185,A,,68.4522,-151.0083
AK,ALASKA,810,AFG,Romanzof Mountains,AK810,North Slope,2185,A,,68.9538,-144.9059
AK,ALASKA,811,AFG,South Slopes of the Eastern Brooks Range,AK811,Yukon-Koyukuk,2290,A,,67.8471,-144.9201
AK,ALASKA,812,AFG,South Slopes of the Central Brooks Range,AK812,Yukon-Koyukuk,2290,A,,67.5646,-151.9607
AK,ALASKA,813,AFG,South Slopes of the Western Brooks Range,AK813,Northwest Arctic,2188,A,,67.6243,-157.2881
AK,ALASKA,814,AFG,Noatak Valley,AK814,Northwest Arctic,2188,A,,67.6896,-161.9337
AK,ALASKA,815,AFG,Kivalina and Red Dog Dock,AK815,Northwest Arctic,2188,A,,67.6038,-164.1586
AK,ALASKA,816,AFG,Lower Kobuk Valley,AK816,Northwest Arctic,2188,A,,66.7012,-160.5806
AK,ALASKA,817,AFG,Baldwin Peninsula,AK817,Northwest Arctic,2188,A,,66.5619,-161.7133
AK,ALASKA,818,AFG,Northern Seward Peninsula,AK818,Northwest Arctic,2188,A,,65.865,-161.6971
AK,ALASKA,819,AFG,Upper Kobuk Valleys,AK819,Northwest Arctic,2188,A,,66.775,-157.3858
AK,ALASKA,820,AFG,Shishmaref,AK820,Nome,2180,A,,66.117,-165.867
AK,ALASKA,821,AFG,Bering Strait Coast,AK821,Nome,2180,A,,65.4254,-166.6301
AK,ALASKA,822,AFG,Southern Seward Peninsula Coast,AK822,Nome,2180,A,,64.6146,-164.4871
AK,ALASKA,823,AFG,Interior Seward Peninsula,AK823,Nome,2180,A,,65.2674,-163.7888
AK,ALASKA,824,AFG,Eastern Norton Sound and Nulato Hills,AK824,Nome,2180,A,,64.2108,-160.884
AK,ALASKA,825,AFG,Yukon Delta Coast,AK825,Kusilvak,2158,A,,62.1513,-164.2464
AK,ALASKA,826,AFG,Lower Yukon River,AK826,Kusilvak,2158,A,,62.1612,-162.0465
AK,ALASKA,827,AFG,St. Lawrence Island,AK827,Nome,2180,A,,63.3895,-170.3421
AK,ALASKA,828,AFG,Lower Koyukuk Valley,AK828,Yukon-Koyukuk,2290,A,,65.6681,-156.8481
AK,ALASKA,829,AFG,Middle Yukon Valley,AK829,Yukon-Koyukuk,2290,A,,64.4694,-156.776
AK,ALASKA,830,AFG,Lower Yukon and Innoko Valleys,AK830,Yukon-Koyukuk,2290,A,,63.0674,-158.329
AK,ALASKA,831,AFG,Upper Koyukuk Valley,AK831,Yukon-Koyukuk,2290,A,,66.3527,-152.8907
AK,ALASKA,832,AFG,Dalton Highway Summits,AK832,Yukon-Koyukuk,2290,A,,66.3044,-150.2855
AK,ALASKA,833,AFG,Yukon Flats,AK833,Yukon-Koyukuk,2290,A,,66.5038,-144.6111
AK,ALASKA,834,AFG,White Mountains and High Terrain South of the Yukon River,AK834,Yukon-Koyukuk,2290,A,,65.4537,-146.8278
AK,ALASKA,835,AFG,Fortymile Country,AK835,Southeast Fairbanks,2240,A,,64.351,-142.5474
AK,ALASKA,836,AFG,Upper Tanana Valley,AK836,Southeast Fairbanks,2240,A,,63.0016,-142.528
AK,ALASKA,837,AFG,Delta Junction,AK837,Southeast Fairbanks,2240,A,,64.0671,-145.6603
AK,ALASKA,838,AFG,Upper Chena River Valley,AK838,Fairbanks North Star,2090,A,,64.8329,-145.4109
AK,ALASKA,839,AFG,Tanana Flats,AK839,Fairbanks North Star,2090,A,,64.4858,-147.58
AK,ALASKA,840,AFG,Eielson Air Force Base and Salcha,AK840,Fairbanks North Star,2090,A,,64.5731,-146.8032
AK,ALASKA,841,AFG,Goldstream Valley and Nenana Hills,AK841,Fairbanks North Star,2090,A,,64.8226,-148.4043
AK,ALASKA,842,AFG,Chatanika River Valley,AK842,Fairbanks North Star,2090,A,,65.1455,-147.4888
AK,ALASKA,843,AFG,Two Rivers,AK843,Fairbanks North Star,2090,A,,64.915,-146.8659
AK,ALASKA,844,AFG,Fairbanks Metro Area,AK844,Fairbanks North Star,2090,A,,64.8465,-147.68
AK,ALASKA,845,AFG,Nenana,AK845,Yukon-Koyukuk,2290,A,,64.5373,-148.7871
AK,ALASKA,846,AFG,Central Interior,AK846,Yukon-Koyukuk,2290,A,,64.7511,-151.8283
AK,ALASKA,847,AFG,Northern Denali Borough,AK847,Denali,2068,A,,63.8161,-150.0994
AK,ALASKA,848,AFG,Southern Denali Borough,AK848,Denali,2068,A,,63.3248,-149.7848
AK,ALASKA,849,AFG,Eastern Alaska Range North of Trims Camp,AK849,Southeast Fairbanks,2240,A,,63.7236,-145.7753
AK,ALASKA,850,AFG,Eastern Alaska Range South of Trims Camp,AK850,Southeast Fairbanks,2240,A,,63.3137,-145.1121
AK,ALASKA,851,AFG,North Slopes of the Western Alaska Range,AK851,Yukon-Koyukuk,2290,A,,62.5083,-153.8608
AK,ALASKA,852,AFG,Upper Kuskokwim Valley,AK852,Yukon-Koyukuk,2290,A,,62.8537,-155.2228
AK,ALASKA,317,AJK,City and Borough of Yakutat,AK317,Yakutat,2282,A,,59.9007,-140.4
AK,ALASKA,318,AJK,Municipality of Skagway,AK318,Skagway,2230,A,,59.5634,-135.3363
AK,ALASKA,319,AJK,Haines Borough and Klukwan,AK319,Haines,2100,A,,59.1231,-135.5029
AK,ALASKA,320,AJK,Glacier Bay,AK320,Hoonah-Angoon,2105,A,,58.7919,-136.374
AK,ALASKA,321,AJK,Eastern Chichagof Island,AK321,Hoonah-Angoon,2105,A,,58.0322,-135.5308
AK,ALASKA,322,AJK,Cape Fairweather to Lisianski Strait,AK322,Hoonah-Angoon,2105,A,,58.3895,-136.9144
AK,ALASKA,323,AJK,City and Borough of Sitka,AK323,Sitka,2220,A,,57.2368,-135.3018
AK,ALASKA,324,AJK,Admiralty Island,AK324,Hoonah-Angoon,2105,A,,57.7037,-134.0857
AK,ALASKA,325,AJK,City and Borough of Juneau,AK325,Juneau,2110,A,,58.4584,-134.1787
AK,ALASKA,326,AJK,Petersburg Borough,AK326,Petersburg Borough,2195,A,,57.1338,-132.9279
AK,ALASKA,327,AJK,Western Kupreanof and Kuiu Island,AK327,Prince of Wales-Hyder,2198,A,,56.6439,-133.8989
AK,ALASKA,328,AJK,Prince of Wales Island,AK328,Prince of Wales-Hyder,2198,A,,55.5002,-132.8808
AK,ALASKA,329,AJK,City and Borough of Wrangell,AK329,Wrangell,2275,A,,56.3326,-132.0115
AK,ALASKA,330,AJK,Ketchikan Gateway Borough,AK330,Ketchikan,2130,A,,55.597,-130.9302
AK,ALASKA,331,AJK,City of Hyder,AK331,Prince of Wales-Hyder,2198,A,,55.9569,-130.1734
AK,ALASKA,332,AJK,Annette Island,AK332,Prince of Wales-Hyder,2198,A,,55.1277,-131.4853
MD,MARYLAND,21,AKQ,Dorchester,MD021,Dorchester,24019,E,se,38.4799,-76.008
MD,MARYLAND,22,AKQ,Wicomico,MD022,Wicomico,24045,E,se,38.3737,-75.6193
MD,MARYLAND,23,AKQ,Somerset,MD023,Somerset,24039,E,se,38.1188,-75.7449
MD,MARYLAND,24,AKQ,Inland Worcester,MD024,Worcester,24047,E,se,38.2142,-75.3833
MD,MARYLAND,25,AKQ,Maryland Beaches,MD025,Worcester,24047,E,se,38.251,-75.1598
NC,NORTH CAROLINA,12,AKQ,Northampton,NC012,Northampton,37131,E,ne,36.4177,-77.3967
NC,NORTH CAROLINA,13,AKQ,Hertford,NC013,Hertford,37091,E,ne,36.359,-76.9838
NC,NORTH CAROLINA,14,AKQ,Gates,NC014,Gates,37073,E,ne,36.4444,-76.7017
NC,NORTH CAROLINA,15,AKQ,Pasquotank,NC015,Pasquotank,37139,E,ne,36.2974,-76.2867
NC,NORTH CAROLINA,16,AKQ,Camden,NC016,Camden,37029,E,ne,36.3902,-76.2101
NC,NORTH CAROLINA,17,AKQ,Western Currituck,NC017,Currituck,37053,E,ne,36.4012,-76.034
NC,NORTH CAROLINA,30,AKQ,Bertie,NC030,Bertie,37015,E,ne,36.0662,-76.9791
NC,NORTH CAROLINA,31,AKQ,Chowan,NC031,Chowan,37041,E,ne,36.1507,-76.608
NC,NORTH CAROLINA,32,AKQ,Perquimans,NC032,Perquimans,37143,E,ne,36.2069,-76.4419
NC,NORTH CAROLINA,102,AKQ,Eastern Currituck,NC102,Currituck,37053,E,ne,36.4001,-75.844
VA,VIRGINIA,48,AKQ,Fluvanna,VA048,Fluvanna,51065,E,cc,37.8419,-78.2774
VA,VIRGINIA,60,AKQ,Prince Edward,VA060,Prince Edward,51147,E,cc,37.2243,-78.4411
VA,VIRGINIA,61,AKQ,Cumberland,VA061,Cumberland,51049,E,cc,37.512,-78.245
VA,VIRGINIA,62,AKQ,Goochland,VA062,Goochland,51075,E,cc,37.722,-77.9164
VA,VIRGINIA,64,AKQ,Caroline,VA064,Caroline,51033,E,nc,38.0272,-77.3475
VA,VIRGINIA,65,AKQ,Mecklenburg,VA065,Mecklenburg,51117,E,sc,36.6804,-78.3627
VA,VIRGINIA,66,AKQ,Lunenburg,VA066,Lunenburg,51111,E,sc,36.9462,-78.2406
VA,VIRGINIA,67,AKQ,Nottoway,VA067,Nottoway,51135,E,sc,37.1431,-78.0512
VA,VIRGINIA,68,AKQ,Amelia,VA068,Amelia,51007,E,cc,37.336,-77.9761
VA,VIRGINIA,69,AKQ,Powhatan,VA069,Powhatan,51145,E,cc,37.5502,-77.9152
VA,VIRGINIA,75,AKQ,Westmoreland,VA075,Westmoreland,51193,E,ec,38.1108,-76.8052
VA,VIRGINIA,75,AKQ,Westmoreland,VA075,Westmoreland,51193,E,ec,38.1366,-76.7253
VA,VIRGINIA,76,AKQ,Richmond,VA076,Richmond,51159,E,ec,37.8881,-76.7671
VA,VIRGINIA,76,AKQ,Richmond,VA076,Richmond,51159,E,ec,37.9429,-76.7249
VA,VIRGINIA,77,AKQ,Northumberland,VA077,Northumberland,51133,E,ee,37.8863,-76.4228
VA,VIRGINIA,78,AKQ,Lancaster,VA078,Lancaster,51103,E,ee,37.6779,-76.4808
VA,VIRGINIA,78,AKQ,Lancaster,VA078,Lancaster,51103,E,ee,37.7371,-76.465
VA,VIRGINIA,79,AKQ,Brunswick,VA079,Brunswick,51025,E,sc,36.7648,-77.859
VA,VIRGINIA,80,AKQ,Dinwiddie,VA080,Dinwiddie,51053,E,sc,37.0759,-77.6323
VA,VIRGINIA,81,AKQ,Prince George,VA081,Prince George,51149,E,sc,37.1915,-77.2389
VA,VIRGINIA,81,AKQ,Prince George,VA081,City of Hopewell,51670,E,sc,37.1915,-77.2389
VA,VIRGINIA,81,AKQ,Prince George,VA081,City of Petersburg,51730,E,sc,37.1915,-77.2389
VA,VIRGINIA,82,AKQ,Charles City,VA082,Charles City,51036,E,ec,37.2385,-76.9027
VA,VIRGINIA,82,AKQ,Charles City,VA082,Charles City,51036,E,ec,37.3565,-77.0613
VA,VIRGINIA,83,AKQ,New Kent,VA083,New Kent,51127,E,ec,37.5052,-76.9972
VA,VIRGINIA,84,AKQ,Gloucester,VA084,Gloucester,51073,E,ee,37.3249,-76.5063
VA,VIRGINIA,84,AKQ,Gloucester,VA084,Gloucester,51073,E,se,37.4257,-76.5431
VA,VIRGINIA,85,AKQ,Middlesex,VA085,Middlesex,51119,E,ee,37.6258,-76.4816
VA,VIRGINIA,85,AKQ,Middlesex,VA085,Middlesex,51119,E,ee,37.6353,-76.5769
VA,VIRGINIA,86,AKQ,Mathews,VA086,Mathews,51115,E,ee,37.4368,-76.3444
VA,VIRGINIA,86,AKQ,Mathews,VA086,Mathews,51115,E,ee,37.4577,-76.3416
VA,VIRGINIA,87,AKQ,Greensville,VA087,Greensville,51081,E,sc,36.6763,-77.559
VA,VIRGINIA,87,AKQ,Greensville,VA087,City of Emporia,51595,E,se,36.6763,-77.559
VA,VIRGINIA,88,AKQ,Sussex,VA088,Sussex,51183,E,se,36.9218,-77.2618
VA,VIRGINIA,89,AKQ,Surry,VA089,Surry,51181,E,se,37.1169,-76.8883
VA,VIRGINIA,90,AKQ,James City,VA090,James City,51095,E,se,37.2088,-76.7412
VA,VIRGINIA,90,AKQ,James City,VA090,James City,51095,E,se,37.3264,-76.7745
VA,VIRGINIA,90,AKQ,James City,VA090,City of Williamsburg,51830,E,se,37.3264,-76.7745
VA,VIRGINIA,92,AKQ,Southampton,VA092,Southampton,51175,E,se,36.7199,-77.1038
VA,VIRGINIA,92,AKQ,Southampton,VA092,City of Franklin,51620,E,se,36.7199,-77.1038
VA,VIRGINIA,93,AKQ,Isle of Wight,VA093,Isle of Wight,51093,E,se,36.9067,-76.7091
VA,VIRGINIA,95,AKQ,Norfolk/Portsmouth,VA095,City of Norfolk,51710,E,se,36.8752,-76.2937
VA,VIRGINIA,95,AKQ,Norfolk/Portsmouth,VA095,City of Norfolk,51710,E,se,36.8959,-76.3428
VA,VIRGINIA,95,AKQ,Norfolk/Portsmouth,VA095,City of Portsmouth,51740,E,se,36.8752,-76.2937
VA,VIRGINIA,95,AKQ,Norfolk/Portsmouth,VA095,City of Portsmouth,51740,E,se,36.8959,-76.3428
VA,VIRGINIA,96,AKQ,Suffolk,VA096,City of Suffolk,51800,E,se,36.6926,-76.6417
VA,VIRGINIA,96,AKQ,Suffolk,VA096,City of Suffolk,51800,E,se,36.8935,-76.4749
VA,VIRGINIA,97,AKQ,Chesapeake,VA097,City of Chesapeake,51550,E,se,36.6778,-76.3024
VA,VIRGINIA,98,AKQ,Virginia Beach,VA098,City of Virginia Beach,51810,E,se,36.7494,-76.0571
VA,VIRGINIA,99,AKQ,Accomack,VA099,Accomack,51001,E,se,37.7659,-75.6472
VA,VIRGINIA,100,AKQ,Northampton,VA100,Northampton,51131,E,ee,37.3566,-75.8995
VA,VIRGINIA,509,AKQ,Western Louisa,VA509,Louisa,51109,E,cc,38.0408,-78.1061
VA,VIRGINIA,510,AKQ,Eastern Louisa,VA510,Louisa,51109,E,cc,37.9335,-77.8608
VA,VIRGINIA,511,AKQ,Western Hanover,VA511,Hanover,51085,E,cc,37.809,-77.5823
VA,VIRGINIA,512,AKQ,Eastern Hanover,VA512,Hanover,51085,E,cc,37.4671,-77.2793
VA,VIRGINIA,513,AKQ,Western Chesterfield,VA513,Chesterfield,51041,E,cc,37.3765,-77.5835
VA,VIRGINIA,514,AKQ,Eastern Chesterfield (Including Col. Heights),VA514,City of Colonial Heights,51570,E,cc,37.3765,-77.5835
VA,VIRGINIA,515,AKQ,Western Henrico (Including the City of Richmond),VA515,Henrico,51087,E,cc,37.5362,-77.42
VA,VIRGINIA,515,AKQ,Western Henrico (Including the City of Richmond),VA515,City of Richmond,51760,E,cc,37.5293,-77.4754
VA,VIRGINIA,516,AKQ,Eastern Henrico,VA516,Henrico,51087,E,cc,37.5362,-77.42
VA,VIRGINIA,517,AKQ,Western King William,VA517,King William,51101,E,ec,37.7067,-77.0884
VA,VIRGINIA,518,AKQ,Eastern King William,VA518,King William,51101,E,ec,37.7067,-77.0884
VA,VIRGINIA,519,AKQ,Western King and Queen,VA519,King and Queen,51097,E,ec,37.7179,-76.8946
VA,VIRGINIA,520,AKQ,Eastern King and Queen,VA520,King and Queen,51097,E,ec,37.7179,-76.8946
VA,VIRGINIA,521,AKQ,Western Essex,VA521,Essex,51057,E,ec,37.8958,-76.808
VA,VIRGINIA,522,AKQ,Eastern Essex,VA522,Essex,51057,E,ec,37.9426,-76.9518
VA,VIRGINIA,523,AKQ,York,VA523,York,51199,E,se,37.2242,-76.5383
VA,VIRGINIA,523,AKQ,York,VA523,York,51199,E,se,37.256,-76.5124
VA,VIRGINIA,523,AKQ,York,VA523,City of Poquoson,51735,E,se,37.2242,-76.5383
VA,VIRGINIA,524,AKQ,Newport News/Hampton,VA524,City of Newport News,51700,e,SE,37.077,-76.5058
VA,VIRGINIA,525,AKQ,Hampton/Poquoson,VA525,City of Hampton,51650,E,se,37.0534,-76.3673
CT,CONNECTICUT,1,ALY,Northern Litchfield,CT001,Litchfield,9005,E,nn,41.8851,-73.2502
CT,CONNECTICUT,13,ALY,Southern Litchfield,CT013,Litchfield,9005,E,nn,41.6344,-73.2368
MA,MASSACHUSETTS,1,ALY,Northern Berkshire,MA001,Berkshire,25003,E,ww,42.56,-73.1518
MA,MASSACHUSETTS,25,ALY,Southern Berkshire,MA025,Berkshire,25003,E,ww,42.2158,-73.2511
NY,NEW YORK,32,ALY,Northern Herkimer,NY032,Herkimer,36043,E,ee,43.7111,-74.9693
NY,NEW YORK,33,ALY,Hamilton,NY033,Hamilton,36041,E,ee,43.6611,-74.4973
NY,NEW YORK,38,ALY,Southern Herkimer,NY038,Herkimer,36043,E,ee,43.0923,-74.9549
NY,NEW YORK,39,ALY,Southern Fulton,NY039,Fulton,36035,E,ee,43.0404,-74.4213
NY,NEW YORK,40,ALY,Montgomery,NY040,Montgomery,36057,E,ee,42.9023,-74.4397
NY,NEW YORK,41,ALY,Northern Saratoga,NY041,Saratoga,36091,E,ec,43.1808,-73.8582
NY,NEW YORK,42,ALY,Northern Warren,NY042,Warren,36113,E,ec,43.5976,-73.8646
NY,NEW YORK,43,ALY,Northern Washington,NY043,Washington,36115,E,ec,43.5196,-73.4239
NY,NEW YORK,47,ALY,Schoharie,NY047,Schoharie,36095,E,ec,42.5882,-74.4421
NY,NEW YORK,48,ALY,Western Schenectady,NY048,Schenectady,36093,E,ec,42.79,-74.1561
NY,NEW YORK,49,ALY,Eastern Schenectady,NY049,Schenectady,36093,E,ec,42.8421,-73.9758
NY,NEW YORK,50,ALY,Southern Saratoga,NY050,Saratoga,36091,E,ec,42.9413,-73.8768
NY,NEW YORK,51,ALY,Western Albany,NY051,Albany,36001,E,ec,42.5646,-74.125
NY,NEW YORK,52,ALY,Eastern Albany,NY052,Albany,36001,E,ec,42.6223,-73.8796
NY,NEW YORK,53,ALY,Western Rensselaer,NY053,Rensselaer,36083,E,ec,42.7053,-73.6159
NY,NEW YORK,54,ALY,Eastern Rensselaer,NY054,Rensselaer,36083,E,ec,42.7167,-73.4058
NY,NEW YORK,58,ALY,Western Greene,NY058,Greene,36039,E,ec,42.257,-74.2376
NY,NEW YORK,59,ALY,Eastern Greene,NY059,Greene,36039,E,ec,42.312,-73.9147
NY,NEW YORK,60,ALY,Western Columbia,NY060,Columbia,36021,E,ec,42.2451,-73.733
NY,NEW YORK,61,ALY,Eastern Columbia,NY061,Columbia,36021,E,ec,42.2548,-73.536
NY,NEW YORK,63,ALY,Western Ulster,NY063,Ulster,36111,E,ec,41.9216,-74.3795
NY,NEW YORK,64,ALY,Eastern Ulster,NY064,Ulster,36111,E,ec,41.8336,-74.0616
NY,NEW YORK,65,ALY,Western Dutchess,NY065,Dutchess,36027,E,ec,41.7716,-73.8457
NY,NEW YORK,66,ALY,Eastern Dutchess,NY066,Dutchess,36027,E,ec,41.7574,-73.6193
NY,NEW YORK,82,ALY,Northern Fulton,NY082,Fulton,36035,E,ee,43.1615,-74.4228
NY,NEW YORK,83,ALY,Southeast Warren,NY083,Warren,36113,E,ec,43.3468,-73.7376
NY,NEW YORK,84,ALY,Southern Washington,NY084,Washington,36115,E,ec,43.1564,-73.436
VT,VERMONT,13,ALY,Bennington,VT013,Bennington,50003,E,ss,43.0355,-73.0929
VT,VERMONT,14,ALY,Western Windham,VT014,Windham,50025,E,ss,43.0015,-72.7867
VT,VERMONT,15,ALY,Eastern Windham,VT015,Windham,50025,E,ss,42.9675,-72.5583
OK,OKLAHOMA,1,AMA,Cimarron,OK001,Cimarron,40025,C,pa,36.7483,-102.5178
OK,OKLAHOMA,2,AMA,Texas,OK002,Texas,40139,C,pa,36.7479,-101.49
OK,OKLAHOMA,3,AMA,Beaver,OK003,Beaver,40007,C,pa,36.7497,-100.4767
TX,TEXAS,1,AMA,Dallam,TX001,Dallam,48111,C,pa,36.2779,-102.6022
TX,TEXAS,2,AMA,Sherman,TX002,Sherman,48421,C,pa,36.2777,-101.8935
TX,TEXAS,3,AMA,Hansford,TX003,Hansford,48195,C,pa,36.2775,-101.3545
TX,TEXAS,4,AMA,Ochiltree,TX004,Ochiltree,48357,C,pa,36.2784,-100.8156
TX,TEXAS,5,AMA,Lipscomb,TX005,Lipscomb,48295,C,pa,36.2777,-100.2731
TX,TEXAS,6,AMA,Hartley,TX006,Hartley,48205,C,pa,35.84,-102.6029
TX,TEXAS,7,AMA,Moore,TX007,Moore,48341,C,pa,35.8377,-101.8929
TX,TEXAS,8,AMA,Hutchinson,TX008,Hutchinson,48233,C,pa,35.84,-101.3547
TX,TEXAS,9,AMA,Roberts,TX009,Roberts,48393,C,pa,35.8385,-100.8134
TX,TEXAS,10,AMA,Hemphill,TX010,Hemphill,48211,C,pa,35.8376,-100.2705
TX,TEXAS,11,AMA,Oldham,TX011,Oldham,48359,C,pa,35.405,-102.6029
TX,TEXAS,12,AMA,Potter,TX012,Potter,48375,C,pa,35.4013,-101.894
TX,TEXAS,13,AMA,Carson,TX013,Carson,48065,C,pa,35.4035,-101.3542
TX,TEXAS,14,AMA,Gray,TX014,Gray,48179,C,pa,35.4012,-100.8126
TX,TEXAS,15,AMA,Wheeler,TX015,Wheeler,48483,C,pa,35.4013,-100.2697
TX,TEXAS,16,AMA,Deaf Smith,TX016,Deaf Smith,48117,C,pa,34.966,-102.6049
TX,TEXAS,17,AMA,Randall,TX017,Randall,48381,C,pa,34.9669,-101.9073
TX,TEXAS,18,AMA,Armstrong,TX018,Armstrong,48011,C,pa,34.9649,-101.3574
TX,TEXAS,19,AMA,Donley,TX019,Donley,48129,C,pa,34.9654,-100.814
TX,TEXAS,20,AMA,Collingsworth,TX020,Collingsworth,48087,C,pa,34.9649,-100.2701
TX,TEXAS,317,AMA,Palo Duro Canyon,TX317,Randall,48381,C,pa,34.9436,-101.6778
MI,MICHIGAN,16,APX,Emmet,MI016,Emmet,26047,E,nn,45.5205,-84.8905
MI,MICHIGAN,17,APX,Cheboygan,MI017,Cheboygan,26031,E,nn,45.4468,-84.4999
MI,MICHIGAN,18,APX,Presque Isle,MI018,Presque Isle,26141,E,nn,45.3396,-83.9159
MI,MICHIGAN,20,APX,Leelanau,MI020,Leelanau,26089,E,nn,44.9367,-85.8123
MI,MICHIGAN,21,APX,Antrim,MI021,Antrim,26009,E,nn,45.0003,-85.1377
MI,MICHIGAN,22,APX,Otsego,MI022,Otsego,26137,E,nn,45.0214,-84.5988
MI,MICHIGAN,23,APX,Montmorency,MI023,Montmorency,26119,E,nn,45.0275,-84.1273
MI,MICHIGAN,24,APX,Alpena,MI024,Alpena,26007,E,nn,45.0347,-83.6285
MI,MICHIGAN,25,APX,Benzie,MI025,Benzie,26019,E,nn,44.6395,-86.0158
MI,MICHIGAN,26,APX,Grand Traverse,MI026,Grand Traverse,26055,E,nn,44.6709,-85.559
MI,MICHIGAN,27,APX,Kalkaska,MI027,Kalkaska,26079,E,nn,44.6846,-85.0902
MI,MICHIGAN,28,APX,Crawford,MI028,Crawford,26039,E,nn,44.6836,-84.6103
MI,MICHIGAN,29,APX,Oscoda,MI029,Oscoda,26135,E,nn,44.6817,-84.1297
MI,MICHIGAN,30,APX,Alcona,MI030,Alcona,26001,E,nn,44.6854,-83.5938
MI,MICHIGAN,31,APX,Manistee,MI031,Manistee,26101,E,nn,44.3332,-86.0571
MI,MICHIGAN,32,APX,Wexford,MI032,Wexford,26165,E,nn,44.3384,-85.5785
MI,MICHIGAN,33,APX,Missaukee,MI033,Missaukee,26113,E,nn,44.3373,-85.0947
MI,MICHIGAN,34,APX,Roscommon,MI034,Roscommon,26143,E,nn,44.3356,-84.6116
MI,MICHIGAN,35,APX,Ogemaw,MI035,Ogemaw,26129,E,nn,44.3349,-84.1266
MI,MICHIGAN,36,APX,Iosco,MI036,Iosco,26069,E,nn,44.3559,-83.636
MI,MICHIGAN,41,APX,Gladwin,MI041,Gladwin,26051,E,nn,43.9906,-84.3882
MI,MICHIGAN,42,APX,Arenac,MI042,Arenac,26011,E,nn,44.0656,-83.8948
MI,MICHIGAN,86,APX,Western Chippewa ,MI086,Chippewa,26033,E,ee,46.3926,-84.9529
MI,MICHIGAN,87,APX,Central Chippewa ,MI087,Chippewa,26033,E,ee,46.3221,-84.3611
MI,MICHIGAN,88,APX,Southeast Chippewa ,MI088,Chippewa,26033,E,ee,46.0374,-83.9354
MI,MICHIGAN,95,APX,Western Mackinac ,MI095,Mackinac,26097,E,ee,46.1362,-85.5266
MI,MICHIGAN,96,APX,Eastern Mackinac ,MI096,Mackinac,26097,E,ee,46.0504,-84.7048
MI,MICHIGAN,97,APX,Mackinac Island/Bois Blanc Island ,MI097,Mackinac,26097,E,ee,45.779,-84.4809
MI,MICHIGAN,98,APX,Beaver Island ,MI098,Charlevoix,26029,E,nn,45.6807,-85.55
MI,MICHIGAN,99,APX,Charlevoix ,MI099,Charlevoix,26029,E,nn,45.2247,-85.0407
IA,IOWA,8,ARX,Mitchell,IA008,Mitchell,19131,C,nc,43.3564,-92.7891
IA,IOWA,9,ARX,Howard,IA009,Howard,19089,C,ne,43.3568,-92.3172
IA,IOWA,10,ARX,Winneshiek,IA010,Winneshiek,19191,C,ne,43.2906,-91.8437
IA,IOWA,11,ARX,Allamakee,IA011,Allamakee,19005,C,ne,43.2843,-91.3781
IA,IOWA,18,ARX,Floyd,IA018,Floyd,19067,C,nc,43.06,-92.789
IA,IOWA,19,ARX,Chickasaw,IA019,Chickasaw,19037,C,ne,43.0601,-92.3176
IA,IOWA,29,ARX,Fayette,IA029,Fayette,19065,C,ne,42.8625,-91.8443
IA,IOWA,30,ARX,Clayton,IA030,Clayton,19043,C,ne,42.8447,-91.3414
MN,MINNESOTA,79,ARX,Wabasha,MN079,Wabasha,27157,C,se,44.2842,-92.2303
MN,MINNESOTA,86,ARX,Dodge,MN086,Dodge,27039,C,se,44.0225,-92.862
MN,MINNESOTA,87,ARX,Olmsted,MN087,Olmsted,27109,C,se,44.0036,-92.4018
MN,MINNESOTA,88,ARX,Winona,MN088,Winona,27169,C,se,43.9869,-91.7791
MN,MINNESOTA,94,ARX,Mower,MN094,Mower,27099,C,se,43.6714,-92.7525
MN,MINNESOTA,95,ARX,Fillmore,MN095,Fillmore,27045,C,se,43.674,-92.0901
MN,MINNESOTA,96,ARX,Houston,MN096,Houston,27055,C,se,43.6714,-91.4928
WI,WISCONSIN,17,ARX,Taylor,WI017,Taylor,55119,C,nc,45.2115,-90.5012
WI,WISCONSIN,29,ARX,Clark,WI029,Clark,55019,C,cc,44.7347,-90.6121
WI,WISCONSIN,32,ARX,Buffalo,WI032,Buffalo,55011,C,wc,44.3799,-91.7545
WI,WISCONSIN,33,ARX,Trempealeau,WI033,Trempealeau,55121,C,wc,44.304,-91.3585
WI,WISCONSIN,34,ARX,Jackson,WI034,Jackson,55053,C,wc,44.3191,-90.8052
WI,WISCONSIN,41,ARX,La Crosse,WI041,La Crosse,55063,C,wc,43.9065,-91.1152
WI,WISCONSIN,42,ARX,Monroe,WI042,Monroe,55081,C,wc,43.9457,-90.6179
WI,WISCONSIN,43,ARX,Juneau,WI043,Juneau,55057,C,cc,43.9245,-90.114
WI,WISCONSIN,44,ARX,Adams,WI044,Adams,55001,C,cc,43.9696,-89.7706
WI,WISCONSIN,53,ARX,Vernon,WI053,Vernon,55123,C,sw,43.5939,-90.8344
WI,WISCONSIN,54,ARX,Crawford,WI054,Crawford,55023,C,sw,43.2395,-90.931
WI,WISCONSIN,55,ARX,Richland,WI055,Richland,55103,C,sw,43.3756,-90.4295
WI,WISCONSIN,61,ARX,Grant,WI061,Grant,55043,C,sw,42.8675,-90.7062
NY,NEW YORK,9,BGM,Northern Oneida,NY009,Oneida,36065,E,cc,43.3813,-75.4692
NY,NEW YORK,15,BGM,Yates,NY015,Yates,36123,E,cc,42.6335,-77.1055
NY,NEW YORK,16,BGM,Seneca,NY016,Seneca,36099,E,cc,42.781,-76.8237
NY,NEW YORK,17,BGM,Southern Cayuga,NY017,Cayuga,36011,E,cc,42.8012,-76.5302
NY,NEW YORK,18,BGM,Onondaga,NY018,Onondaga,36067,E,cc,43.0058,-76.1946
NY,NEW YORK,22,BGM,Steuben,NY022,Steuben,36101,E,cc,42.2678,-77.3838
NY,NEW YORK,23,BGM,Schuyler,NY023,Schuyler,36097,E,cc,42.3938,-76.8752
NY,NEW YORK,24,BGM,Chemung,NY024,Chemung,36015,E,cc,42.1413,-76.76
NY,NEW YORK,25,BGM,Tompkins,NY025,Tompkins,36109,E,cc,42.452,-76.4737
NY,NEW YORK,36,BGM,Madison,NY036,Madison,36053,E,cc,42.9129,-75.6697
NY,NEW YORK,37,BGM,Southern Oneida,NY037,Oneida,36065,E,cc,43.12,-75.4068
NY,NEW YORK,44,BGM,Cortland,NY044,Cortland,36023,E,cc,42.595,-76.0702
NY,NEW YORK,45,BGM,Chenango,NY045,Chenango,36017,E,cc,42.4936,-75.6115
NY,NEW YORK,46,BGM,Otsego,NY046,Otsego,36077,E,cc,42.6338,-75.0326
NY,NEW YORK,55,BGM,Tioga,NY055,Tioga,36107,E,cc,42.1703,-76.3063
NY,NEW YORK,56,BGM,Broome,NY056,Broome,36007,E,cc,42.1602,-75.8196
NY,NEW YORK,57,BGM,Delaware,NY057,Delaware,36025,E,cc,42.1982,-74.9665
NY,NEW YORK,62,BGM,Sullivan,NY062,Sullivan,36105,E,cc,41.7164,-74.7681
PA,PENNSYLVANIA,38,BGM,Bradford,PA038,Bradford,42015,E,ne,41.7886,-76.5157
PA,PENNSYLVANIA,39,BGM,Susquehanna,PA039,Susquehanna,42115,E,ne,41.8214,-75.8008
PA,PENNSYLVANIA,40,BGM,Northern Wayne,PA040,Wayne,42127,E,ne,41.7773,-75.2898
PA,PENNSYLVANIA,43,BGM,Wyoming,PA043,Wyoming,42131,E,ne,41.5184,-76.0165
PA,PENNSYLVANIA,44,BGM,Lackawanna,PA044,Lackawanna,42069,E,ne,41.437,-75.6092
PA,PENNSYLVANIA,47,BGM,Luzerne,PA047,Luzerne,42079,E,ne,41.1772,-75.9889
PA,PENNSYLVANIA,48,BGM,Pike,PA048,Pike,42103,E,ne,41.3321,-75.0337
PA,PENNSYLVANIA,72,BGM,Southern Wayne,PA072,Wayne,42127,E,ne,41.4763,-75.3213
ND,NORTH DAKOTA,1,BIS,Divide,ND001,Divide,38023,C,nw,48.8149,-103.4873
ND,NORTH DAKOTA,2,BIS,Burke,ND002,Burke,38013,C,nw,48.7909,-102.5183
ND,NORTH DAKOTA,3,BIS,Renville,ND003,Renville,38075,C,nc,48.7192,-101.6581
ND,NORTH DAKOTA,4,BIS,Bottineau,ND004,Bottineau,38009,C,nc,48.7921,-100.8335
ND,NORTH DAKOTA,5,BIS,Rolette,ND005,Rolette,38079,C,nc,48.7724,-99.8411
ND,NORTH DAKOTA,9,BIS,Williams,ND009,Williams,38105,C,nw,48.3437,-103.4802
ND,NORTH DAKOTA,10,BIS,Mountrail,ND010,Mountrail,38061,C,nw,48.2013,-102.3556
ND,NORTH DAKOTA,11,BIS,Ward,ND011,Ward,38101,C,nc,48.2218,-101.5418
ND,NORTH DAKOTA,12,BIS,McHenry,ND012,McHenry,38049,C,nc,48.2346,-100.6363
ND,NORTH DAKOTA,13,BIS,Pierce,ND013,Pierce,38069,C,nc,48.2496,-99.9718
ND,NORTH DAKOTA,17,BIS,McKenzie,ND017,McKenzie,38053,CM,nw,47.7402,-103.3953
ND,NORTH DAKOTA,18,BIS,Dunn,ND018,Dunn,38025,CM,sw,47.3568,-102.6182
ND,NORTH DAKOTA,19,BIS,Mercer,ND019,Mercer,38057,C,sc,47.3092,-101.8315
ND,NORTH DAKOTA,20,BIS,Oliver,ND020,Oliver,38065,C,sc,47.1153,-101.3403
ND,NORTH DAKOTA,21,BIS,McLean,ND021,McLean,38055,C,sc,47.607,-101.3218
ND,NORTH DAKOTA,22,BIS,Sheridan,ND022,Sheridan,38083,C,sc,47.5754,-100.3456
ND,NORTH DAKOTA,23,BIS,Wells,ND023,Wells,38103,C,sc,47.5876,-99.661
ND,NORTH DAKOTA,25,BIS,Foster,ND025,Foster,38031,C,se,47.4571,-98.8831
ND,NORTH DAKOTA,31,BIS,Golden Valley,ND031,Golden Valley,38033,M,sw,46.9402,-103.8467
ND,NORTH DAKOTA,32,BIS,Billings,ND032,Billings,38007,M,sw,47.0235,-103.3764
ND,NORTH DAKOTA,33,BIS,Stark,ND033,Stark,38089,M,sw,46.8107,-102.655
ND,NORTH DAKOTA,34,BIS,Morton,ND034,Morton,38059,C,sc,46.7161,-101.2811
ND,NORTH DAKOTA,35,BIS,Burleigh,ND035,Burleigh,38015,C,sc,46.9774,-100.4688
ND,NORTH DAKOTA,36,BIS,Kidder,ND036,Kidder,38043,C,sc,46.9802,-99.7801
ND,NORTH DAKOTA,37,BIS,Stutsman,ND037,Stutsman,38093,C,se,46.9792,-98.9588
ND,NORTH DAKOTA,40,BIS,Slope,ND040,Slope,38087,M,sw,46.4472,-103.4599
ND,NORTH DAKOTA,41,BIS,Hettinger,ND041,Hettinger,38041,M,sw,46.4326,-102.4604
ND,NORTH DAKOTA,42,BIS,Grant,ND042,Grant,38037,M,sc,46.3583,-101.6397
ND,NORTH DAKOTA,43,BIS,Bowman,ND043,Bowman,38011,M,sw,46.1126,-103.5207
ND,NORTH DAKOTA,44,BIS,Adams,ND044,Adams,38001,M,sw,46.0969,-102.5285
ND,NORTH DAKOTA,45,BIS,Sioux,ND045,Sioux,38085,CM,sc,46.1126,-101.0405
ND,NORTH DAKOTA,46,BIS,Emmons,ND046,Emmons,38029,C,sc,46.2851,-100.2388
ND,NORTH DAKOTA,47,BIS,Logan,ND047,Logan,38047,C,se,46.4574,-99.4775
ND,NORTH DAKOTA,48,BIS,La Moure,ND048,LaMoure,38045,C,se,46.4569,-98.5355
ND,NORTH DAKOTA,50,BIS,McIntosh,ND050,McIntosh,38051,C,se,46.1119,-99.4412
ND,NORTH DAKOTA,51,BIS,Dickey,ND051,Dickey,38021,C,se,46.1102,-98.5046
AL,ALABAMA,11,BMX,Marion,AL011,Marion,1093,C,nw,34.1366,-87.8871
AL,ALABAMA,12,BMX,Lamar,AL012,Lamar,1075,C,wc,33.7792,-88.0969
AL,ALABAMA,13,BMX,Fayette,AL013,Fayette,1057,C,wc,33.7212,-87.7389
AL,ALABAMA,14,BMX,Winston,AL014,Winston,1133,C,nw,34.1492,-87.3737
AL,ALABAMA,15,BMX,Walker,AL015,Walker,1127,C,c,33.8034,-87.2973
AL,ALABAMA,17,BMX,Blount,AL017,Blount,1009,C,c,33.9809,-86.5674
AL,ALABAMA,18,BMX,Etowah,AL018,Etowah,1055,C,ne,34.0453,-86.0348
AL,ALABAMA,19,BMX,Calhoun,AL019,Calhoun,1015,C,ec,33.7714,-85.8261
AL,ALABAMA,20,BMX,Cherokee,AL020,Cherokee,1019,C,ne,34.176,-85.6038
AL,ALABAMA,21,BMX,Cleburne,AL021,Cleburne,1029,C,ec,33.6745,-85.5188
AL,ALABAMA,22,BMX,Pickens,AL022,Pickens,1107,C,wc,33.2809,-88.0887
AL,ALABAMA,23,BMX,Tuscaloosa,AL023,Tuscaloosa,1125,C,wc,33.2895,-87.525
AL,ALABAMA,24,BMX,Jefferson,AL024,Jefferson,1073,C,c,33.5543,-86.8965
AL,ALABAMA,25,BMX,Shelby,AL025,Shelby,1117,C,c,33.2643,-86.6607
AL,ALABAMA,26,BMX,St. Clair,AL026,St. Clair,1115,C,c,33.7157,-86.3147
AL,ALABAMA,27,BMX,Talladega,AL027,Talladega,1121,C,ec,33.38,-86.1659
AL,ALABAMA,28,BMX,Clay,AL028,Clay,1027,C,ec,33.2691,-85.8605
AL,ALABAMA,29,BMX,Randolph,AL029,Randolph,1111,C,ec,33.2938,-85.4591
AL,ALABAMA,30,BMX,Sumter,AL030,Sumter,1119,C,wc,32.591,-88.1988
AL,ALABAMA,31,BMX,Greene,AL031,Greene,1063,C,wc,32.8531,-87.9522
AL,ALABAMA,32,BMX,Hale,AL032,Hale,1065,C,wc,32.7627,-87.6291
AL,ALABAMA,33,BMX,Perry,AL033,Perry,1105,C,c,32.6385,-87.2942
AL,ALABAMA,34,BMX,Bibb,AL034,Bibb,1007,C,c,32.9986,-87.1264
AL,ALABAMA,35,BMX,Chilton,AL035,Chilton,1021,C,c,32.8479,-86.7188
AL,ALABAMA,36,BMX,Coosa,AL036,Coosa,1037,C,ec,32.9362,-86.2476
AL,ALABAMA,37,BMX,Tallapoosa,AL037,Tallapoosa,1123,C,ec,32.8624,-85.7975
AL,ALABAMA,38,BMX,Chambers,AL038,Chambers,1017,C,ec,32.9144,-85.392
AL,ALABAMA,39,BMX,Marengo,AL039,Marengo,1091,C,sw,32.2476,-87.7895
AL,ALABAMA,40,BMX,Dallas,AL040,Dallas,1047,C,sc,32.3258,-87.1065
AL,ALABAMA,41,BMX,Autauga,AL041,Autauga,1001,C,c,32.5349,-86.6428
AL,ALABAMA,42,BMX,Lowndes,AL042,Lowndes,1085,C,sc,32.1547,-86.6501
AL,ALABAMA,43,BMX,Elmore,AL043,Elmore,1051,C,ec,32.5966,-86.1492
AL,ALABAMA,44,BMX,Montgomery,AL044,Montgomery,1101,C,sc,32.2202,-86.2076
AL,ALABAMA,45,BMX,Macon,AL045,Macon,1087,C,se,32.386,-85.6926
AL,ALABAMA,46,BMX,Bullock,AL046,Bullock,1011,C,se,32.1005,-85.7161
AL,ALABAMA,47,BMX,Lee,AL047,Lee,1081,C,ec,32.6012,-85.3556
AL,ALABAMA,48,BMX,Russell,AL048,Russell,1113,C,se,32.2884,-85.1849
AL,ALABAMA,49,BMX,Pike,AL049,Pike,1109,C,se,31.8024,-85.9409
AL,ALABAMA,50,BMX,Barbour,AL050,Barbour,1005,C,se,31.8696,-85.3932
ID,IDAHO,11,BOI,West Central Mountains,ID011,Adams,16003,M,wc,44.7716,-115.8966
ID,IDAHO,11,BOI,West Central Mountains,ID011,Gem,16045,M,sw,44.7716,-115.8966
ID,IDAHO,11,BOI,West Central Mountains,ID011,Valley,16085,M,wc,44.7716,-115.8966
ID,IDAHO,11,BOI,West Central Mountains,ID011,Washington,16087,M,sw,44.7716,-115.8966
ID,IDAHO,12,BOI,Lower Treasure Valley,ID012,Canyon,16027,M,sw,43.7962,-116.692
ID,IDAHO,12,BOI,Lower Treasure Valley,ID012,Gem,16045,M,sw,43.7962,-116.692
ID,IDAHO,12,BOI,Lower Treasure Valley,ID012,Owyhee,16073,M,sw,43.7962,-116.692
ID,IDAHO,12,BOI,Lower Treasure Valley,ID012,Payette,16075,M,sw,43.7962,-116.692
ID,IDAHO,12,BOI,Lower Treasure Valley,ID012,Washington,16087,M,sw,43.7962,-116.692
ID,IDAHO,13,BOI,Boise Mountains,ID013,Boise,16015,M,wc,43.7521,-115.4718
ID,IDAHO,13,BOI,Boise Mountains,ID013,Camas,16025,M,cc,43.7521,-115.4718
ID,IDAHO,13,BOI,Boise Mountains,ID013,Elmore,16039,M,sw,43.7521,-115.4718
ID,IDAHO,14,BOI,Upper Treasure Valley,ID014,Ada,16001,M,sw,43.1035,-115.8643
ID,IDAHO,14,BOI,Upper Treasure Valley,ID014,Elmore,16039,M,sw,43.1035,-115.8643
ID,IDAHO,14,BOI,Upper Treasure Valley,ID014,Owyhee,16073,M,sw,43.1035,-115.8643
ID,IDAHO,15,BOI,Southwest Highlands,ID015,Owyhee,16073,M,sw,42.3439,-116.0477
ID,IDAHO,16,BOI,Western Magic Valley,ID016,Gooding,16047,M,sc,42.7508,-114.5943
ID,IDAHO,16,BOI,Western Magic Valley,ID016,Jerome,16053,M,sc,42.7508,-114.5943
ID,IDAHO,16,BOI,Western Magic Valley,ID016,Twin Falls,16083,M,sc,42.7508,-114.5943
ID,IDAHO,28,BOI,Camas Prairie,ID028,Camas,16025,M,cc,43.301,-114.8183
ID,IDAHO,28,BOI,Camas Prairie,ID028,Elmore,16039,M,sw,43.301,-114.8183
ID,IDAHO,29,BOI,Owyhee Mountains,ID029,Owyhee,16073,M,sw,42.9537,-116.7748
ID,IDAHO,30,BOI,Southern Twin Falls County,ID030,Twin Falls,16083,M,sc,42.2255,-114.6784
ID,IDAHO,33,BOI,Upper Weiser River,ID033,Adams,16003,M,wc,44.476,-116.5799
ID,IDAHO,33,BOI,Upper Weiser River,ID033,Washington,16087,M,sw,44.476,-116.5799
OR,OREGON,61,BOI,Harney County,OR061,Harney,41025,P,se,43.064,-118.9679
OR,OREGON,62,BOI,Baker County,OR062,Baker,41001,P,ne,44.7092,-117.6753
OR,OREGON,63,BOI,Malheur County,OR063,Malheur,41045,MP,se,43.123,-117.6604
OR,OREGON,64,BOI,Oregon Lower Treasure Valley,OR064,Malheur,41045,MP,se,44.0233,-117.1835
CO,COLORADO,30,BOU,Jackson County Below 9000 Feet,CO030,Jackson,8057,M,nc,40.6766,-106.309
CO,COLORADO,31,BOU,West Jackson and West Grand Counties Above 9000 Feet,CO031,Grand,8049,M,nc,40.6175,-106.6092
CO,COLORADO,31,BOU,West Jackson and West Grand Counties Above 9000 Feet,CO031,Jackson,8057,M,nc,40.6175,-106.6092
CO,COLORADO,32,BOU,Grand and Summit Counties Below 9000 Feet,CO032,Grand,8049,M,nc,40.0726,-106.209
CO,COLORADO,32,BOU,Grand and Summit Counties Below 9000 Feet,CO032,Summit,8117,M,cc,40.0726,-106.209
CO,COLORADO,33,BOU,South and East Jackson/Larimer/North and Northeast Grand/Northwest Boulder Counties Above 9000 Feet,CO033,Boulder,8013,M,ne,40.488,-105.9071
CO,COLORADO,33,BOU,South and East Jackson/Larimer/North and Northeast Grand/Northwest Boulder Counties Above 9000 Feet,CO033,Grand,8049,M,nc,40.488,-105.9071
CO,COLORADO,33,BOU,South and East Jackson/Larimer/North and Northeast Grand/Northwest Boulder Counties Above 9000 Feet,CO033,Jackson,8057,M,nc,40.488,-105.9071
CO,COLORADO,33,BOU,South and East Jackson/Larimer/North and Northeast Grand/Northwest Boulder Counties Above 9000 Feet,CO033,Larimer,8069,M,nc,40.488,-105.9071
CO,COLORADO,34,BOU,South and Southeast Grand/West Central and Southwest Boulder/Gilpin/Clear Creek/Summit/North and West Park Counties Above 9000 Feet,CO034,Boulder,8013,M,ne,39.6044,-105.8505
CO,COLORADO,34,BOU,South and Southeast Grand/West Central and Southwest Boulder/Gilpin/Clear Creek/Summit/North and West Park Counties Above 9000 Feet,CO034,Clear Creek,8019,M,cc,39.6044,-105.8505
CO,COLORADO,34,BOU,South and Southeast Grand/West Central and Southwest Boulder/Gilpin/Clear Creek/Summit/North and West Park Counties Above 9000 Feet,CO034,Gilpin,8047,M,cc,39.6044,-105.8505
CO,COLORADO,34,BOU,South and Southeast Grand/West Central and Southwest Boulder/Gilpin/Clear Creek/Summit/North and West Park Counties Above 9000 Feet,CO034,Grand,8049,M,nc,39.6044,-105.8505
CO,COLORADO,34,BOU,South and Southeast Grand/West Central and Southwest Boulder/Gilpin/Clear Creek/Summit/North and West Park Counties Above 9000 Feet,CO034,Jefferson,8059,M,ne,39.6044,-105.8505
CO,COLORADO,34,BOU,South and Southeast Grand/West Central and Southwest Boulder/Gilpin/Clear Creek/Summit/North and West Park Counties Above 9000 Feet,CO034,Park,8093,M,cc,39.6044,-105.8505
CO,COLORADO,34,BOU,South and Southeast Grand/West Central and Southwest Boulder/Gilpin/Clear Creek/Summit/North and West Park Counties Above 9000 Feet,CO034,Summit,8117,M,cc,39.6044,-105.8505
CO,COLORADO,35,BOU,Larimer and Boulder Counties Between 6000 and 9000 Feet,CO035,Boulder,8013,M,ne,40.6099,-105.4708
CO,COLORADO,35,BOU,Larimer and Boulder Counties Between 6000 and 9000 Feet,CO035,Larimer,8069,M,nc,40.6099,-105.4708
CO,COLORADO,36,BOU,Jefferson and West Douglas Counties Above  6000 Feet/Gilpin/Clear Creek/Northeast Park Counties Below 9000 Feet,CO036,Clear Creek,8019,M,cc,39.4838,-105.2681
CO,COLORADO,36,BOU,Jefferson and West Douglas Counties Above  6000 Feet/Gilpin/Clear Creek/Northeast Park Counties Below 9000 Feet,CO036,Douglas,8035,M,ne,39.4838,-105.2681
CO,COLORADO,36,BOU,Jefferson and West Douglas Counties Above  6000 Feet/Gilpin/Clear Creek/Northeast Park Counties Below 9000 Feet,CO036,Gilpin,8047,M,cc,39.4838,-105.2681
CO,COLORADO,36,BOU,Jefferson and West Douglas Counties Above  6000 Feet/Gilpin/Clear Creek/Northeast Park Counties Below 9000 Feet,CO036,Jefferson,8059,M,ne,39.4838,-105.2681
CO,COLORADO,36,BOU,Jefferson and West Douglas Counties Above  6000 Feet/Gilpin/Clear Creek/Northeast Park Counties Below 9000 Feet,CO036,Park,8093,M,cc,39.4838,-105.2681
CO,COLORADO,37,BOU,Central and Southeast Park County,CO037,Park,8093,M,cc,38.9846,-105.6737
CO,COLORADO,38,BOU,Larimer County Below 6000 Feet/Northwest Weld County,CO038,Larimer,8069,M,nc,40.7183,-104.8423
CO,COLORADO,38,BOU,Larimer County Below 6000 Feet/Northwest Weld County,CO038,Weld,8123,M,ne,40.7183,-104.8423
CO,COLORADO,39,BOU,Boulder And Jefferson Counties Below 6000 Feet/West Broomfield County,CO039,Boulder,8013,M,ne,39.9606,-105.156
CO,COLORADO,39,BOU,Boulder And Jefferson Counties Below 6000 Feet/West Broomfield County,CO039,Broomfield,8014,M,ne,39.9606,-105.156
CO,COLORADO,39,BOU,Boulder And Jefferson Counties Below 6000 Feet/West Broomfield County,CO039,Jefferson,8059,M,ne,39.9606,-105.156
CO,COLORADO,40,BOU,North Douglas County Below 6000 Feet/Denver/West Adams and Arapahoe Counties/East Broomfield County,CO040,Adams,8001,M,ne,39.7656,-104.804
CO,COLORADO,40,BOU,North Douglas County Below 6000 Feet/Denver/West Adams and Arapahoe Counties/East Broomfield County,CO040,Arapahoe,8005,M,ne,39.7656,-104.804
CO,COLORADO,40,BOU,North Douglas County Below 6000 Feet/Denver/West Adams and Arapahoe Counties/East Broomfield County,CO040,Broomfield,8014,M,ne,39.7656,-104.804
CO,COLORADO,40,BOU,North Douglas County Below 6000 Feet/Denver/West Adams and Arapahoe Counties/East Broomfield County,CO040,Denver,8031,M,ne,39.7656,-104.804
CO,COLORADO,40,BOU,North Douglas County Below 6000 Feet/Denver/West Adams and Arapahoe Counties/East Broomfield County,CO040,Douglas,8035,M,ne,39.7656,-104.804
CO,COLORADO,41,BOU,Elbert/Central and East Douglas Counties Above 6000 Feet,CO041,Arapahoe,8005,M,ne,39.3075,-104.5091
CO,COLORADO,41,BOU,Elbert/Central and East Douglas Counties Above 6000 Feet,CO041,Douglas,8035,M,ne,39.3075,-104.5091
CO,COLORADO,41,BOU,Elbert/Central and East Douglas Counties Above 6000 Feet,CO041,Elbert,8039,M,ec,39.3075,-104.5091
CO,COLORADO,42,BOU,Northeast Weld County,CO042,Weld,8123,M,ne,40.7427,-104.0025
CO,COLORADO,43,BOU,Central and South Weld County,CO043,Weld,8123,M,ne,40.2668,-104.5924
CO,COLORADO,44,BOU,Morgan County,CO044,Morgan,8087,M,ne,40.2627,-103.8098
CO,COLORADO,45,BOU,Central and East Adams and Arapahoe Counties,CO045,Adams,8001,M,ne,39.7839,-104.1048
CO,COLORADO,45,BOU,Central and East Adams and Arapahoe Counties,CO045,Arapahoe,8005,M,ne,39.7839,-104.1048
CO,COLORADO,46,BOU,North and Northeast Elbert County Below 6000 Feet/North Lincoln County,CO046,Elbert,8039,M,ec,39.356,-103.6814
CO,COLORADO,46,BOU,North and Northeast Elbert County Below 6000 Feet/North Lincoln County,CO046,Lincoln,8073,M,ec,39.356,-103.6814
CO,COLORADO,47,BOU,Southeast Elbert County Below 6000 Feet/South Lincoln County,CO047,Elbert,8039,M,ec,38.8048,-103.5944
CO,COLORADO,47,BOU,Southeast Elbert County Below 6000 Feet/South Lincoln County,CO047,Lincoln,8073,M,ec,38.8048,-103.5944
CO,COLORADO,48,BOU,Logan County,CO048,Logan,8075,M,ne,40.7247,-103.1101
CO,COLORADO,49,BOU,Washington County,CO049,Washington,8121,M,ne,39.971,-103.2013
CO,COLORADO,50,BOU,Sedgwick County,CO050,Sedgwick,8115,M,ne,40.8758,-102.3518
CO,COLORADO,51,BOU,Phillips County,CO051,Phillips,8095,M,ne,40.5939,-102.3575
CT,CONNECTICUT,2,BOX,Hartford,CT002,Hartford,9003,E,nn,41.8064,-72.7328
CT,CONNECTICUT,3,BOX,Tolland,CT003,Tolland,9013,E,nn,41.855,-72.3365
CT,CONNECTICUT,4,BOX,Windham,CT004,Windham,9015,E,nn,41.83,-71.9875
MA,MASSACHUSETTS,2,BOX,Western Franklin,MA002,Franklin,25011,E,ww,42.6171,-72.7907
MA,MASSACHUSETTS,3,BOX,Eastern Franklin,MA003,Franklin,25011,E,ww,42.5591,-72.4514
MA,MASSACHUSETTS,4,BOX,Northern Worcester,MA004,Worcester,25027,E,cc,42.4539,-71.9778
MA,MASSACHUSETTS,5,BOX,Central Middlesex County,MA005,Middlesex,25017,E,se,42.4633,-71.3797
MA,MASSACHUSETTS,6,BOX,Western Essex,MA006,Essex,25009,E,ee,42.7153,-71.0659
MA,MASSACHUSETTS,7,BOX,Eastern Essex,MA007,Essex,25009,E,ee,42.6372,-70.8674
MA,MASSACHUSETTS,8,BOX,Western Hampshire,MA008,Hampshire,25015,E,ww,42.3891,-72.8687
MA,MASSACHUSETTS,9,BOX,Western Hampden,MA009,Hampden,25013,E,ww,42.1675,-72.9334
MA,MASSACHUSETTS,10,BOX,Eastern Hampshire,MA010,Hampshire,25015,E,ww,42.3044,-72.5146
MA,MASSACHUSETTS,11,BOX,Eastern Hampden,MA011,Hampden,25013,E,ww,42.1202,-72.493
MA,MASSACHUSETTS,12,BOX,Southern Worcester,MA012,Worcester,25027,E,cc,42.1513,-71.7709
MA,MASSACHUSETTS,13,BOX,Western Norfolk,MA013,Norfolk,25021,E,ee,42.1423,-71.2658
MA,MASSACHUSETTS,14,BOX,Southeast Middlesex,MA014,Middlesex,25017,E,se,42.4193,-71.157
MA,MASSACHUSETTS,15,BOX,Suffolk,MA015,Norfolk,25021,E,ee,42.3308,-71.0826
MA,MASSACHUSETTS,15,BOX,Suffolk,MA015,Suffolk,25025,E,ee,42.3308,-71.0826
MA,MASSACHUSETTS,16,BOX,Eastern Norfolk,MA016,Norfolk,25021,E,ee,42.2217,-71.0093
MA,MASSACHUSETTS,17,BOX,Northern Bristol,MA017,Bristol,25005,E,se,41.9171,-71.1849
MA,MASSACHUSETTS,18,BOX,Western Plymouth,MA018,Plymouth,25023,E,se,41.9679,-70.8932
MA,MASSACHUSETTS,19,BOX,Eastern Plymouth,MA019,Norfolk,25021,E,ee,42.0271,-70.7171
MA,MASSACHUSETTS,19,BOX,Eastern Plymouth,MA019,Plymouth,25023,E,se,42.0271,-70.7171
MA,MASSACHUSETTS,20,BOX,Southern Bristol,MA020,Bristol,25005,E,se,41.6746,-71.0384
MA,MASSACHUSETTS,21,BOX,Southern Plymouth,MA021,Plymouth,25023,E,se,41.7415,-70.7761
MA,MASSACHUSETTS,22,BOX,Barnstable,MA022,Barnstable,25001,E,se,41.7262,-70.2986
MA,MASSACHUSETTS,23,BOX,Dukes,MA023,Dukes,25007,E,se,41.3966,-70.6561
MA,MASSACHUSETTS,24,BOX,Nantucket,MA024,Nantucket,25019,E,se,41.2781,-70.0744
MA,MASSACHUSETTS,26,BOX,Northwest Middlesex County,MA026,Middlesex,25017,E,se,42.6386,-71.6598
NH,NEW HAMPSHIRE,11,BOX,Cheshire,NH011,Cheshire,33005,E,ss,42.9193,-72.2512
NH,NEW HAMPSHIRE,12,BOX,Eastern Hillsborough,NH012,Hillsborough,33011,E,ss,42.8448,-71.4574
NH,NEW HAMPSHIRE,15,BOX,Western And Central Hillsborough,NH015,Hillsborough,33011,E,ss,42.9363,-71.7929
RI,RHODE ISLAND,1,BOX,Northwest Providence,RI001,Providence,44007,E,,41.8908,-71.6203
RI,RHODE ISLAND,2,BOX,Southeast Providence,RI002,Providence,44007,E,,41.8121,-71.4526
RI,RHODE ISLAND,3,BOX,Western Kent,RI003,Kent,44003,E,,41.6644,-71.6637
RI,RHODE ISLAND,4,BOX,Eastern Kent,RI004,Kent,44003,E,,41.6861,-71.4647
RI,RHODE ISLAND,5,BOX,Bristol,RI005,Bristol,44001,E,,41.7161,-71.2842
RI,RHODE ISLAND,6,BOX,Washington,RI006,Washington,44009,E,,41.478,-71.6248
RI,RHODE ISLAND,7,BOX,Newport,RI007,Newport,44005,E,,41.556,-71.2366
RI,RHODE ISLAND,8,BOX,Block Island,RI008,Washington,44009,E,,41.178,-71.5785
TX,TEXAS,248,BRO,Zapata,TX248,Zapata,48505,C,sc,27.0008,-99.1686
TX,TEXAS,249,BRO,Jim Hogg,TX249,Jim Hogg,48247,C,sc,27.0434,-98.6973
TX,TEXAS,250,BRO,Brooks,TX250,Brooks,48047,C,sc,27.0316,-98.2187
TX,TEXAS,251,BRO,Inland Kenedy,TX251,Kenedy,48261,C,sc,26.9205,-97.7793
TX,TEXAS,252,BRO,Starr,TX252,Starr,48427,C,sc,26.5621,-98.7384
TX,TEXAS,253,BRO,Southern Hidalgo,TX253,Hidalgo,48215,C,sc,26.2769,-98.1789
TX,TEXAS,254,BRO,Inland Willacy,TX254,Willacy,48489,C,sc,26.4665,-97.7187
TX,TEXAS,255,BRO,Inland Cameron,TX255,Cameron,48061,C,sc,26.1202,-97.5793
TX,TEXAS,351,BRO,Coastal Kenedy,TX351,Kenedy,48261,C,sc,26.9556,-97.4956
TX,TEXAS,353,BRO,Northern Hidalgo ,TX353,Hidalgo,48215,C,sc,26.6133,-98.1849
TX,TEXAS,354,BRO,Coastal Willacy,TX354,Willacy,48489,C,sc,26.4868,-97.4673
TX,TEXAS,355,BRO,Coastal Cameron,TX355,Cameron,48061,C,sc,26.17,-97.3264
TX,TEXAS,451,BRO,Kenedy Island,TX451,Kenedy,48261,C,sc,26.9012,-97.3609
TX,TEXAS,454,BRO,Willacy Island,TX454,Willacy,48489,C,sc,26.5229,-97.2769
TX,TEXAS,455,BRO,Cameron Island,TX455,Cameron,48061,C,sc,26.1485,-97.1763
NY,NEW YORK,26,BTV,Northern St. Lawrence,NY026,St. Lawrence,36089,E,nn,44.8467,-74.9154
NY,NEW YORK,27,BTV,Northern Franklin,NY027,Franklin,36033,E,nn,44.9016,-74.4258
NY,NEW YORK,28,BTV,Eastern Clinton,NY028,Clinton,36019,E,nn,44.8026,-73.5131
NY,NEW YORK,29,BTV,Southeastern St. Lawrence,NY029,St. Lawrence,36089,E,nn,44.3207,-74.8555
NY,NEW YORK,30,BTV,Southern Franklin,NY030,Franklin,36033,E,nn,44.5162,-74.2734
NY,NEW YORK,31,BTV,Western Clinton,NY031,Clinton,36019,E,nn,44.7069,-73.7931
NY,NEW YORK,34,BTV,Western Essex,NY034,Essex,36031,E,nn,44.0851,-73.8551
NY,NEW YORK,35,BTV,Eastern Essex,NY035,Essex,36031,E,nn,44.2489,-73.4345
NY,NEW YORK,87,BTV,Southwestern St. Lawrence,NY087,St. Lawrence,36089,E,nn,44.5173,-75.3061
VT,VERMONT,1,BTV,Grand Isle,VT001,Grand Isle,50013,E,nw,44.7968,-73.2948
VT,VERMONT,2,BTV,Western Franklin,VT002,Franklin,50011,E,nw,44.8517,-73.034
VT,VERMONT,3,BTV,Orleans,VT003,Orleans,50019,E,ne,44.8288,-72.2438
VT,VERMONT,4,BTV,Essex,VT004,Essex,50009,E,nn,44.7281,-71.7364
VT,VERMONT,5,BTV,Western Chittenden,VT005,Chittenden,50007,E,nw,44.4793,-73.1562
VT,VERMONT,6,BTV,Lamoille,VT006,Lamoille,50015,E,nw,44.6057,-72.6414
VT,VERMONT,7,BTV,Caledonia,VT007,Caledonia,50005,E,ne,44.4647,-72.1022
VT,VERMONT,8,BTV,Washington,VT008,Washington,50023,E,cc,44.2734,-72.6149
VT,VERMONT,9,BTV,Western Addison,VT009,Addison,50001,E,cc,44.0215,-73.2394
VT,VERMONT,10,BTV,Orange,VT010,Orange,50017,E,cc,44.0056,-72.3769
VT,VERMONT,11,BTV,Western Rutland,VT011,Rutland,50021,E,ss,43.5856,-73.1398
VT,VERMONT,16,BTV,Eastern Franklin,VT016,Franklin,50011,E,nw,44.8662,-72.7255
VT,VERMONT,17,BTV,Eastern Chittenden,VT017,Chittenden,50007,E,nw,44.4237,-72.9287
VT,VERMONT,18,BTV,Eastern Addison,VT018,Addison,50001,E,cc,44.0466,-72.9674
VT,VERMONT,19,BTV,Eastern Rutland,VT019,Rutland,50021,E,ss,43.5713,-72.8735
VT,VERMONT,20,BTV,Western Windsor,VT020,Windsor,50027,E,ss,43.6473,-72.7043
VT,VERMONT,21,BTV,Eastern Windsor,VT021,Windsor,50027,E,ss,43.5254,-72.4895
NY,NEW YORK,1,BUF,Niagara,NY001,Niagara,36063,E,ww,43.2011,-78.7425
NY,NEW YORK,2,BUF,Orleans,NY002,Orleans,36073,E,ww,43.2522,-78.2312
NY,NEW YORK,3,BUF,Monroe,NY003,Monroe,36055,E,ww,43.1464,-77.6959
NY,NEW YORK,4,BUF,Wayne,NY004,Wayne,36117,E,ww,43.1566,-77.0292
NY,NEW YORK,5,BUF,Northern Cayuga,NY005,Cayuga,36011,E,cc,43.1775,-76.6084
NY,NEW YORK,6,BUF,Oswego,NY006,Oswego,36075,E,cc,43.426,-76.1412
NY,NEW YORK,7,BUF,Jefferson,NY007,Jefferson,36045,E,cc,44.0409,-75.9102
NY,NEW YORK,8,BUF,Lewis,NY008,Lewis,36049,E,cc,43.7847,-75.4488
NY,NEW YORK,10,BUF,Northern Erie,NY010,Erie,36029,E,ww,42.9375,-78.6923
NY,NEW YORK,11,BUF,Genesee,NY011,Genesee,36037,E,ww,43.001,-78.1936
NY,NEW YORK,12,BUF,Wyoming,NY012,Wyoming,36121,E,ww,42.7023,-78.2245
NY,NEW YORK,13,BUF,Livingston,NY013,Livingston,36051,E,ww,42.7281,-77.7754
NY,NEW YORK,14,BUF,Ontario,NY014,Ontario,36069,E,ww,42.8529,-77.2998
NY,NEW YORK,19,BUF,Chautauqua,NY019,Chautauqua,36013,E,ww,42.2282,-79.3664
NY,NEW YORK,20,BUF,Cattaraugus,NY020,Cattaraugus,36009,E,ww,42.2486,-78.6789
NY,NEW YORK,21,BUF,Allegany,NY021,Allegany,36003,E,ww,42.2574,-78.0276
NY,NEW YORK,85,BUF,Southern Erie,NY085,Erie,36029,E,ww,42.6247,-78.7608
MT,MONTANA,29,BYZ,Musselshell,MT029,Musselshell,30065,M,cc,46.4966,-108.3977
MT,MONTANA,30,BYZ,Treasure,MT030,Treasure,30103,M,se,46.2115,-107.2717
MT,MONTANA,31,BYZ,Northern Rosebud,MT031,Rosebud,30087,M,se,46.3849,-106.7762
MT,MONTANA,32,BYZ,Custer,MT032,Custer,30017,M,se,46.2527,-105.5718
MT,MONTANA,33,BYZ,Fallon,MT033,Fallon,30025,M,se,46.334,-104.4174
MT,MONTANA,34,BYZ,Northern Stillwater,MT034,Stillwater,30095,M,sc,45.8098,-109.2176
MT,MONTANA,36,BYZ,Powder River,MT036,Powder River,30075,M,se,45.395,-105.6301
MT,MONTANA,37,BYZ,Carter,MT037,Carter,30011,M,se,45.5168,-104.5362
MT,MONTANA,40,BYZ,Northern Park,MT040,Park,30067,M,sc,45.9621,-110.6013
MT,MONTANA,42,BYZ,Golden Valley,MT042,Golden Valley,30037,M,cc,46.3251,-109.1643
MT,MONTANA,56,BYZ,Red Lodge Foothills,MT056,Carbon,30009,M,M,45.2833,-109.2924
MT,MONTANA,57,BYZ,Northern Big Horn,MT057,Big Horn,30003,M,sc,45.7318,-107.4595
MT,MONTANA,58,BYZ,Southern Rosebud,MT058,Rosebud,30087,M,se,45.4286,-106.4963
MT,MONTANA,63,BYZ,Judith Gap,MT063,Golden Valley,30037,M,cc,46.6384,-109.6782
MT,MONTANA,63,BYZ,Judith Gap,MT063,Wheatland,30107,M,cc,46.6384,-109.6782
MT,MONTANA,64,BYZ,Paradise Valley,MT064,Park,30067,M,sc,45.3939,-110.7098
MT,MONTANA,65,BYZ,Livingston Area,MT065,Park,30067,M,sc,45.6959,-110.5011
MT,MONTANA,66,BYZ,Beartooth Foothills,MT066,Stillwater,30095,M,sc,45.5734,-109.8035
MT,MONTANA,66,BYZ,Beartooth Foothills,MT066,Sweet Grass,30097,M,sc,45.5734,-109.8035
MT,MONTANA,67,BYZ,Absaroka/Beartooth Mountains,MT067,Carbon,30009,M,M,45.2637,-110.1893
MT,MONTANA,67,BYZ,Absaroka/Beartooth Mountains,MT067,Park,30067,M,sc,45.2637,-110.1893
MT,MONTANA,67,BYZ,Absaroka/Beartooth Mountains,MT067,Stillwater,30095,M,sc,45.2637,-110.1893
MT,MONTANA,67,BYZ,Absaroka/Beartooth Mountains,MT067,Sweet Grass,30097,M,sc,45.2637,-110.1893
MT,MONTANA,68,BYZ,Crazy Mountains,MT068,Park,30067,M,sc,46.0653,-110.3156
MT,MONTANA,68,BYZ,Crazy Mountains,MT068,Sweet Grass,30097,M,sc,46.0653,-110.3156
MT,MONTANA,68,BYZ,Crazy Mountains,MT068,Wheatland,30107,M,cc,46.0653,-110.3156
MT,MONTANA,138,BYZ,Southern Big Horn,MT138,Big Horn,30003,M,sc,45.2712,-107.3455
MT,MONTANA,139,BYZ,Southeastern Carbon,MT139,Big Horn,30003,M,sc,45.1361,-108.8466
MT,MONTANA,139,BYZ,Southeastern Carbon,MT139,Carbon,30009,M,sc,45.1361,-108.8466
MT,MONTANA,141,BYZ,Northern Sweet Grass,MT141,Sweet Grass,30097,M,sc,45.9146,-109.8014
MT,MONTANA,169,BYZ,Bighorn Canyon,MT169,Big Horn,30003,M,sc,45.1827,-108.1417
MT,MONTANA,169,BYZ,Bighorn Canyon,MT169,Carbon,30009,M,sc,45.1827,-108.1417
MT,MONTANA,170,BYZ,Northern Carbon,MT170,Carbon,30009,M,sc,45.4565,-108.9346
MT,MONTANA,171,BYZ,Pryor/Northern Bighorn Mountains,MT171,Big Horn,30003,M,sc,45.1683,-108.2446
MT,MONTANA,171,BYZ,Pryor/Northern Bighorn Mountains,MT171,Carbon,30009,M,sc,45.1683,-108.2446
MT,MONTANA,172,BYZ,Melville Foothills,MT172,Sweet Grass,30097,M,sc,46.1376,-110.0264
MT,MONTANA,172,BYZ,Melville Foothills,MT172,Wheatland,30107,M,sc,46.1376,-110.0264
MT,MONTANA,173,BYZ,Northeastern Yellowstone,MT173,Yellowstone,30111,M,sc,46.1581,-107.9135
MT,MONTANA,228,BYZ,Southern Wheatland,MT228,Wheatland,30107,M,sc,46.4003,-109.8006
MT,MONTANA,235,BYZ,Southwestern Yellowstone,MT235,Yellowstone,30111,M,sc,45.8003,-108.4981
WY,WYOMING,198,BYZ,Northeast Big Horn Mountains,WY098,Sheridan,56033,M,nc,44.7706,-107.492
WY,WYOMING,199,BYZ,Sheridan Foothills,WY099,Sheridan,56033,M,nc,44.7977,-106.6544
GA,GEORGIA,40,CAE,Lincoln,GA040,Lincoln,13181,E,ec,33.7936,-82.4512
GA,GEORGIA,63,CAE,McDuffie,GA063,McDuffie,13189,E,ec,33.4829,-82.4814
GA,GEORGIA,64,CAE,Columbia,GA064,Columbia,13073,E,ec,33.5442,-82.264
GA,GEORGIA,65,CAE,Richmond,GA065,Richmond,13245,E,ec,33.3596,-82.0735
GA,GEORGIA,77,CAE,Burke,GA077,Burke,13033,E,ec,33.0612,-82.0008
SC,SOUTH CAROLINA,16,CAE,Chesterfield,SC016,Chesterfield,45025,E,cc,34.6397,-80.1586
SC,SOUTH CAROLINA,18,CAE,McCormick,SC018,McCormick,45065,E,cc,33.8996,-82.3099
SC,SOUTH CAROLINA,20,CAE,Newberry,SC020,Newberry,45071,E,cc,34.2898,-81.6001
SC,SOUTH CAROLINA,21,CAE,Fairfield,SC021,Fairfield,45039,E,cc,34.3951,-81.1212
SC,SOUTH CAROLINA,22,CAE,Kershaw,SC022,Kershaw,45055,E,cc,34.3388,-80.5903
SC,SOUTH CAROLINA,25,CAE,Edgefield,SC025,Edgefield,45037,E,cc,33.7723,-81.9666
SC,SOUTH CAROLINA,26,CAE,Saluda,SC026,Saluda,45081,E,cc,34.0061,-81.7269
SC,SOUTH CAROLINA,27,CAE,Lexington,SC027,Lexington,45063,E,cc,33.9022,-81.2722
SC,SOUTH CAROLINA,28,CAE,Richland,SC028,Richland,45079,E,cc,34.0218,-80.9031
SC,SOUTH CAROLINA,29,CAE,Lee,SC029,Lee,45061,E,cc,34.1633,-80.2545
SC,SOUTH CAROLINA,30,CAE,Aiken,SC030,Aiken,45003,E,cc,33.5444,-81.6348
SC,SOUTH CAROLINA,31,CAE,Sumter,SC031,Sumter,45085,E,cc,33.9162,-80.3823
SC,SOUTH CAROLINA,35,CAE,Barnwell,SC035,Barnwell,45011,E,cc,33.2661,-81.435
SC,SOUTH CAROLINA,37,CAE,Calhoun,SC037,Calhoun,45017,E,cc,33.6749,-80.7802
SC,SOUTH CAROLINA,38,CAE,Clarendon,SC038,Clarendon,45027,E,cc,33.6658,-80.2164
SC,SOUTH CAROLINA,41,CAE,Bamberg,SC041,Bamberg,45009,E,cc,33.2147,-81.0542
SC,SOUTH CAROLINA,115,CAE,Northern Lancaster ,SC115,Lancaster,45057,E,cc,34.9326,-80.842
SC,SOUTH CAROLINA,116,CAE,Southern Lancaster ,SC116,Lancaster,45057,E,cc,34.6577,-80.6893
SC,SOUTH CAROLINA,135,CAE,Northwestern Orangeburg,SC135,Orangeburg,45075,E,cc,33.5756,-81.1333
SC,SOUTH CAROLINA,136,CAE,Central Orangeburg,SC136,Orangeburg,45075,E,cc,33.4489,-80.9111
SC,SOUTH CAROLINA,137,CAE,Southeastern Orangeburg,SC137,Orangeburg,45075,E,cc,33.3649,-80.5375
ME,MAINE,1,CAR,Northwest Aroostook,ME001,Aroostook,23003,E,nn,46.948,-69.1077
ME,MAINE,2,CAR,Northeast Aroostook,ME002,Aroostook,23003,E,nn,46.7264,-68.2182
ME,MAINE,3,CAR,Northern Somerset,ME003,Somerset,23025,E,wc,46.2366,-69.9716
ME,MAINE,4,CAR,Northern Piscataquis,ME004,Piscataquis,23021,E,nc,46.1825,-69.24
ME,MAINE,5,CAR,Northern Penobscot,ME005,Penobscot,23019,E,ec,45.9454,-68.6456
ME,MAINE,6,CAR,Southeast Aroostook,ME006,Aroostook,23003,E,nn,46.0031,-68.1173
ME,MAINE,10,CAR,Central Piscataquis,ME010,Piscataquis,23021,E,nc,45.5609,-69.4281
ME,MAINE,11,CAR,Central Penobscot,ME011,Penobscot,23019,E,ec,45.3901,-68.4069
ME,MAINE,15,CAR,Southern Penobscot,ME015,Penobscot,23019,E,ec,44.9362,-68.8441
ME,MAINE,16,CAR,Interior Hancock,ME016,Hancock,23009,E,se,44.851,-68.3239
ME,MAINE,17,CAR,Central Washington,ME017,Washington,23029,E,se,45.0093,-67.6338
ME,MAINE,29,CAR,Coastal Hancock,ME029,Hancock,23009,E,se,44.4349,-68.3928
ME,MAINE,30,CAR,Coastal Washington,ME030,Washington,23029,E,se,44.6796,-67.5411
ME,MAINE,31,CAR,Southern Piscataquis,ME031,Piscataquis,23021,E,nc,45.2475,-69.1568
ME,MAINE,32,CAR,Northern Washington,ME032,Washington,23029,E,se,45.4766,-67.7419
GA,GEORGIA,87,CHS,Jenkins,GA087,Jenkins,13165,E,se,32.7925,-81.9636
GA,GEORGIA,88,CHS,Screven,GA088,Screven,13251,E,se,32.7507,-81.6119
GA,GEORGIA,99,CHS,Candler,GA099,Candler,13043,E,se,32.4035,-82.0737
GA,GEORGIA,100,CHS,Bulloch,GA100,Bulloch,13031,E,se,32.3969,-81.7432
GA,GEORGIA,101,CHS,Effingham,GA101,Effingham,13103,E,se,32.3675,-81.3407
GA,GEORGIA,114,CHS,Tattnall,GA114,Tattnall,13267,E,se,32.0458,-82.0582
GA,GEORGIA,115,CHS,Evans,GA115,Evans,13109,E,se,32.1568,-81.8869
GA,GEORGIA,116,CHS,Inland Bryan,GA116,Bryan,13029,E,se,32.0404,-81.475
GA,GEORGIA,117,CHS,Coastal Bryan,GA117,Bryan,13029,E,se,31.8127,-81.2002
GA,GEORGIA,118,CHS,Inland Chatham,GA118,Chatham,13051,E,se,32.0772,-81.2278
GA,GEORGIA,119,CHS,Coastal Chatham,GA119,Chatham,13051,E,se,31.9182,-81.0342
GA,GEORGIA,119,CHS,Coastal Chatham,GA119,Chatham,13051,E,se,31.9392,-81.0501
GA,GEORGIA,137,CHS,Long,GA137,Long,13183,E,se,31.7528,-81.746
GA,GEORGIA,138,CHS,Inland Liberty,GA138,Liberty,13179,E,se,31.8508,-81.5352
GA,GEORGIA,139,CHS,Coastal Liberty,GA139,Liberty,13179,E,se,31.6625,-81.2029
GA,GEORGIA,139,CHS,Coastal Liberty,GA139,Liberty,13179,E,se,31.6716,-81.2012
GA,GEORGIA,140,CHS,Inland McIntosh,GA140,McIntosh,13191,E,se,31.5278,-81.4877
GA,GEORGIA,141,CHS,Coastal McIntosh,GA141,McIntosh,13191,E,se,31.4585,-81.3001
GA,GEORGIA,141,CHS,Coastal McIntosh,GA141,McIntosh,13191,E,se,31.4659,-81.3213
SC,SOUTH CAROLINA,40,CHS,Allendale,SC040,Allendale,45005,E,se,32.9881,-81.3581
SC,SOUTH CAROLINA,42,CHS,Hampton,SC042,Hampton,45049,E,se,32.7763,-81.1406
SC,SOUTH CAROLINA,43,CHS,Inland Colleton,SC043,Colleton,45029,E,se,32.9179,-80.7029
SC,SOUTH CAROLINA,44,CHS,Dorchester,SC044,Dorchester,45035,E,se,33.0795,-80.4052
SC,SOUTH CAROLINA,45,CHS,Inland Berkeley,SC045,Berkeley,45015,E,se,33.222,-79.9542
SC,SOUTH CAROLINA,47,CHS,Inland Jasper,SC047,Jasper,45053,E,se,32.4763,-81.0517
SC,SOUTH CAROLINA,48,CHS,Beaufort,SC048,Beaufort,45013,E,se,32.3568,-80.6933
SC,SOUTH CAROLINA,48,CHS,Beaufort,SC048,Beaufort,45013,E,se,32.3874,-80.7373
SC,SOUTH CAROLINA,49,CHS,Coastal Colleton,SC049,Colleton,45029,E,se,32.6103,-80.498
SC,SOUTH CAROLINA,50,CHS,Charleston,SC050,Charleston,45019,E,se,32.8411,-79.9437
SC,SOUTH CAROLINA,51,CHS,Coastal Jasper,SC051,Jasper,45053,E,se,32.2423,-80.9561
SC,SOUTH CAROLINA,52,CHS,Tidal Berkeley,SC052,Berkeley,45015,E,se,32.9612,-79.9183
OH,OHIO,3,CLE,Lucas,OH003,Lucas,39095,E,nw,41.62,-83.6586
OH,OHIO,6,CLE,Wood,OH006,Wood,39173,E,nw,41.3617,-83.623
OH,OHIO,7,CLE,Ottawa,OH007,Ottawa,39123,E,nw,41.5381,-83.1467
OH,OHIO,8,CLE,Sandusky,OH008,Sandusky,39143,E,nw,41.3565,-83.145
OH,OHIO,9,CLE,Erie,OH009,Erie,39043,E,nc,41.3635,-82.6178
OH,OHIO,10,CLE,Lorain,OH010,Lorain,39093,E,nc,41.2955,-82.1512
OH,OHIO,11,CLE,Cuyahoga,OH011,Cuyahoga,39035,E,ne,41.4243,-81.6587
OH,OHIO,12,CLE,Lake,OH012,Lake,39085,E,ne,41.6968,-81.237
OH,OHIO,13,CLE,Geauga,OH013,Geauga,39055,E,ne,41.4995,-81.1786
OH,OHIO,14,CLE,Ashtabula Inland,OH014,Ashtabula,39007,E,ne,41.6796,-80.743
OH,OHIO,17,CLE,Hancock,OH017,Hancock,39063,E,nw,41.0019,-83.6665
OH,OHIO,18,CLE,Seneca,OH018,Seneca,39147,E,nw,41.1239,-83.1277
OH,OHIO,19,CLE,Huron,OH019,Huron,39077,E,nc,41.1462,-82.5984
OH,OHIO,20,CLE,Medina,OH020,Medina,39103,E,ne,41.1176,-81.8997
OH,OHIO,21,CLE,Summit,OH021,Summit,39153,E,ne,41.1259,-81.5321
OH,OHIO,22,CLE,Portage,OH022,Portage,39133,E,ne,41.1676,-81.1962
OH,OHIO,23,CLE,Trumbull,OH023,Trumbull,39155,E,ne,41.3174,-80.7604
OH,OHIO,27,CLE,Wyandot,OH027,Wyandot,39175,E,nw,40.8424,-83.3044
OH,OHIO,28,CLE,Crawford,OH028,Crawford,39033,E,nc,40.8509,-82.9197
OH,OHIO,29,CLE,Richland,OH029,Richland,39139,E,nc,40.7747,-82.5365
OH,OHIO,30,CLE,Ashland,OH030,Ashland,39005,E,nc,40.8461,-82.2707
OH,OHIO,31,CLE,Wayne,OH031,Wayne,39169,E,ne,40.8289,-81.8883
OH,OHIO,32,CLE,Stark,OH032,Stark,39151,E,ne,40.8138,-81.3659
OH,OHIO,33,CLE,Mahoning,OH033,Mahoning,39099,E,ne,41.0146,-80.7753
OH,OHIO,36,CLE,Marion,OH036,Marion,39101,E,nc,40.5873,-83.1609
OH,OHIO,37,CLE,Morrow,OH037,Morrow,39117,E,nc,40.524,-82.7941
OH,OHIO,38,CLE,Holmes,OH038,Holmes,39075,E,ne,40.5612,-81.9294
OH,OHIO,47,CLE,Knox,OH047,Knox,39083,E,nc,40.3988,-82.4216
OH,OHIO,89,CLE,Ashtabula Lakeshore,OH089,Ashtabula,39007,E,ne,41.8761,-80.7817
PA,PENNSYLVANIA,1,CLE,Northern Erie,PA001,Erie,42049,E,nw,42.1018,-80.1245
PA,PENNSYLVANIA,2,CLE,Southern Erie,PA002,Erie,42049,E,nw,41.97,-80.014
PA,PENNSYLVANIA,3,CLE,Crawford,PA003,Crawford,42039,E,nw,41.6848,-80.1063
TX,TEXAS,229,CRP,La Salle,TX229,La Salle,48283,C,sc,28.3451,-99.0997
TX,TEXAS,230,CRP,McMullen,TX230,McMullen,48311,C,sc,28.3491,-98.5675
TX,TEXAS,231,CRP,Live Oak,TX231,Live Oak,48297,C,sc,28.3514,-98.1248
TX,TEXAS,232,CRP,Bee,TX232,Bee,48025,C,sc,28.4174,-97.7412
TX,TEXAS,233,CRP,Goliad,TX233,Goliad,48175,C,sc,28.6571,-97.4264
TX,TEXAS,234,CRP,Victoria,TX234,Victoria,48469,C,se,28.7964,-96.9714
TX,TEXAS,239,CRP,Webb,TX239,Webb,48479,C,sc,27.7611,-99.3316
TX,TEXAS,240,CRP,Duval,TX240,Duval,48131,C,sc,27.6813,-98.5089
TX,TEXAS,241,CRP,Jim Wells,TX241,Jim Wells,48249,C,sc,27.731,-98.0902
TX,TEXAS,242,CRP,Inland Kleberg,TX242,Kleberg,48273,C,sc,27.4319,-97.8503
TX,TEXAS,243,CRP,Inland Nueces,TX243,Nueces,48355,C,sc,27.7423,-97.7226
TX,TEXAS,244,CRP,Inland San Patricio,TX244,San Patricio,48409,C,sc,28.0275,-97.5879
TX,TEXAS,245,CRP,Aransas,TX245,Aransas,48007,C,sc,28.1558,-97.0065
TX,TEXAS,246,CRP,Inland Refugio,TX246,Refugio,48391,C,so,28.3407,-97.208
TX,TEXAS,247,CRP,Inland Calhoun,TX247,Calhoun,48057,C,sc,28.5677,-96.7923
TX,TEXAS,342,CRP,Coastal Kleberg,TX342,Kleberg,48273,C,sc,27.4408,-97.4768
TX,TEXAS,343,CRP,Coastal Nueces,TX343,Nueces,48355,C,sc,27.6637,-97.4107
TX,TEXAS,344,CRP,Coastal San Patricio,TX344,San Patricio,48409,C,sc,27.9431,-97.2647
TX,TEXAS,345,CRP,Aransas County Islands,TX345,Aransas,48007,C,sc,28.0051,-96.9391
TX,TEXAS,346,CRP,Coastal Refugio,TX346,Refugio,48391,C,so,28.2777,-97.0145
TX,TEXAS,347,CRP,Coastal Calhoun,TX347,Calhoun,48057,C,sc,28.5117,-96.5835
TX,TEXAS,442,CRP,Kleberg County Island,TX442,Kleberg,48273,C,sc,27.4267,-97.3101
TX,TEXAS,443,CRP,Nueces County Islands,TX443,Nueces,48355,C,sc,27.7078,-97.1651
TX,TEXAS,447,CRP,Calhoun County Island,TX447,Calhoun,48057,C,sc,28.2324,-96.6387
PA,PENNSYLVANIA,4,CTP,Warren,PA004,Warren,42123,E,nc,41.8147,-79.2741
PA,PENNSYLVANIA,5,CTP,McKean,PA005,McKean,42083,E,nc,41.8078,-78.569
PA,PENNSYLVANIA,6,CTP,Potter,PA006,Potter,42105,E,nc,41.745,-77.8958
PA,PENNSYLVANIA,10,CTP,Elk,PA010,Elk,42047,E,nc,41.4253,-78.6492
PA,PENNSYLVANIA,11,CTP,Cameron,PA011,Cameron,42023,E,nc,41.4368,-78.2038
PA,PENNSYLVANIA,12,CTP,Northern Clinton,PA012,Clinton,42035,E,nc,41.2914,-77.7332
PA,PENNSYLVANIA,17,CTP,Clearfield,PA017,Clearfield,42033,E,cc,41.0002,-78.4741
PA,PENNSYLVANIA,18,CTP,Northern Centre,PA018,Centre,42027,E,cc,40.9895,-78.0032
PA,PENNSYLVANIA,19,CTP,Southern Centre,PA019,Centre,42027,E,cc,40.8739,-77.7022
PA,PENNSYLVANIA,24,CTP,Cambria,PA024,Cambria,42021,E,cc,40.4954,-78.7136
PA,PENNSYLVANIA,25,CTP,Blair,PA025,Blair,42013,E,cc,40.4813,-78.3486
PA,PENNSYLVANIA,26,CTP,Huntingdon,PA026,Huntingdon,42061,E,cc,40.417,-77.9812
PA,PENNSYLVANIA,27,CTP,Mifflin,PA027,Mifflin,42087,E,cc,40.6104,-77.6171
PA,PENNSYLVANIA,28,CTP,Juniata,PA028,Juniata,42067,E,cc,40.5311,-77.402
PA,PENNSYLVANIA,33,CTP,Somerset,PA033,Somerset,42111,E,sc,39.9725,-79.0283
PA,PENNSYLVANIA,34,CTP,Bedford,PA034,Bedford,42009,E,sc,40.0066,-78.4902
PA,PENNSYLVANIA,35,CTP,Fulton,PA035,Fulton,42057,E,sc,39.9255,-78.1124
PA,PENNSYLVANIA,36,CTP,Franklin,PA036,Franklin,42055,E,sc,39.9275,-77.7212
PA,PENNSYLVANIA,37,CTP,Tioga,PA037,Tioga,42117,E,nc,41.7721,-77.2543
PA,PENNSYLVANIA,41,CTP,Northern Lycoming,PA041,Lycoming,42081,E,nc,41.4265,-77.1724
PA,PENNSYLVANIA,42,CTP,Sullivan,PA042,Sullivan,42113,E,nc,41.446,-76.5119
PA,PENNSYLVANIA,45,CTP,Southern Clinton,PA045,Clinton,42035,E,nc,41.0789,-77.3821
PA,PENNSYLVANIA,46,CTP,Southern Lycoming,PA046,Lycoming,42081,E,nc,41.2287,-76.9158
PA,PENNSYLVANIA,49,CTP,Union,PA049,Union,42119,E,cc,40.963,-77.0621
PA,PENNSYLVANIA,50,CTP,Snyder,PA050,Snyder,42109,E,cc,40.77,-77.0701
PA,PENNSYLVANIA,51,CTP,Montour,PA051,Montour,42093,E,cc,41.028,-76.6586
PA,PENNSYLVANIA,52,CTP,Northumberland,PA052,Northumberland,42097,E,cc,40.852,-76.7091
PA,PENNSYLVANIA,53,CTP,Columbia,PA053,Columbia,42037,E,cc,41.0486,-76.4052
PA,PENNSYLVANIA,56,CTP,Perry,PA056,Perry,42099,E,sc,40.3984,-77.2622
PA,PENNSYLVANIA,57,CTP,Dauphin,PA057,Dauphin,42043,E,sc,40.4155,-76.7792
PA,PENNSYLVANIA,58,CTP,Schuylkill,PA058,Schuylkill,42107,E,cc,40.7059,-76.216
PA,PENNSYLVANIA,59,CTP,Lebanon,PA059,Lebanon,42075,E,sc,40.3672,-76.4577
PA,PENNSYLVANIA,63,CTP,Cumberland,PA063,Cumberland,42041,E,sc,40.1637,-77.2651
PA,PENNSYLVANIA,64,CTP,Adams,PA064,Adams,42001,E,sc,39.8715,-77.2179
PA,PENNSYLVANIA,65,CTP,York,PA065,York,42133,E,sc,39.9199,-76.7265
PA,PENNSYLVANIA,66,CTP,Lancaster,PA066,Lancaster,42071,E,sc,40.0424,-76.2477
NE,NEBRASKA,2,CYS,Dawes,NE002,Dawes,31045,M,pa,42.7197,-103.1354
NE,NEBRASKA,3,CYS,Box Butte,NE003,Box Butte,31013,M,pa,42.2198,-103.0857
NE,NEBRASKA,19,CYS,Scotts Bluff,NE019,Scotts Bluff,31157,M,pa,41.8506,-103.708
NE,NEBRASKA,20,CYS,Banner,NE020,Banner,31007,M,pa,41.546,-103.7104
NE,NEBRASKA,21,CYS,Morrill,NE021,Morrill,31123,M,pa,41.716,-103.0105
NE,NEBRASKA,54,CYS,Kimball,NE054,Kimball,31105,M,pa,41.1977,-103.715
NE,NEBRASKA,55,CYS,Cheyenne,NE055,Cheyenne,31033,M,pa,41.2198,-102.995
NE,NEBRASKA,95,CYS,North Sioux,NE095,Sioux,31165,M,pa,42.7142,-103.7719
NE,NEBRASKA,96,CYS,South Sioux,NE096,Sioux,31165,M,pa,42.2153,-103.7432
WY,WYOMING,101,CYS,Converse County Lower Elevations,WY101,Converse,56009,M,ec,43.074,-105.4593
WY,WYOMING,102,CYS,Niobrara County,WY102,Niobrara,56027,M,ec,43.0565,-104.4754
WY,WYOMING,103,CYS,North Laramie Range,WY103,Albany,56001,M,se,42.3535,-105.6241
WY,WYOMING,103,CYS,North Laramie Range,WY103,Converse,56009,M,ec,42.3535,-105.6241
WY,WYOMING,103,CYS,North Laramie Range,WY103,Platte,56031,M,se,42.3535,-105.6241
WY,WYOMING,104,CYS,Ferris/Seminoe/Shirley Mountains,WY104,Carbon,56007,M,sc,42.2707,-106.878
WY,WYOMING,105,CYS,Shirley Basin,WY105,Albany,56001,M,se,42.134,-106.0943
WY,WYOMING,105,CYS,Shirley Basin,WY105,Carbon,56007,M,sc,42.134,-106.0943
WY,WYOMING,106,CYS,Central Laramie Range and Southwest Platte County,WY106,Albany,56001,M,se,41.8778,-105.2243
WY,WYOMING,106,CYS,Central Laramie Range and Southwest Platte County,WY106,Laramie,56021,M,se,41.8778,-105.2243
WY,WYOMING,106,CYS,Central Laramie Range and Southwest Platte County,WY106,Platte,56031,M,se,41.8778,-105.2243
WY,WYOMING,107,CYS,East Platte County,WY107,Platte,56031,M,se,42.2373,-104.8821
WY,WYOMING,108,CYS,Goshen County,WY108,Goshen,56015,M,se,42.088,-104.3533
WY,WYOMING,109,CYS,Central Carbon County,WY109,Carbon,56007,M,sc,41.8204,-107.103
WY,WYOMING,110,CYS,North Snowy Range Foothills,WY110,Albany,56001,M,se,41.6904,-106.259
WY,WYOMING,110,CYS,North Snowy Range Foothills,WY110,Carbon,56007,M,sc,41.6904,-106.259
WY,WYOMING,111,CYS,Southwest Carbon County,WY111,Carbon,56007,M,sc,41.2862,-107.7097
WY,WYOMING,112,CYS,Sierra Madre Range,WY112,Carbon,56007,M,sc,41.1695,-107.099
WY,WYOMING,113,CYS,Upper North Platte River Basin,WY113,Carbon,56007,M,sc,41.3867,-106.7713
WY,WYOMING,114,CYS,Snowy Range,WY114,Albany,56001,M,se,41.3101,-106.3148
WY,WYOMING,114,CYS,Snowy Range,WY114,Carbon,56007,M,sc,41.3101,-106.3148
WY,WYOMING,115,CYS,Laramie Valley,WY115,Albany,56001,M,se,41.4005,-105.7614
WY,WYOMING,116,CYS,South Laramie Range,WY116,Albany,56001,M,se,41.2851,-105.3769
WY,WYOMING,116,CYS,South Laramie Range,WY116,Laramie,56021,M,se,41.2851,-105.3769
WY,WYOMING,117,CYS,South Laramie Range Foothills,WY117,Albany,56001,M,se,41.3136,-105.0324
WY,WYOMING,117,CYS,South Laramie Range Foothills,WY117,Laramie,56021,M,se,41.3136,-105.0324
WY,WYOMING,118,CYS,Central Laramie County,WY118,Laramie,56021,M,se,41.3277,-104.6546
WY,WYOMING,119,CYS,East Laramie County,WY119,Laramie,56021,M,se,41.2851,-104.2337
KS,KANSAS,30,DDC,Trego,KS030,Trego,20195,C,wc,38.9143,-99.8729
KS,KANSAS,31,DDC,Ellis,KS031,Ellis,20051,C,cc,38.9148,-99.3173
KS,KANSAS,43,DDC,Scott,KS043,Scott,20171,C,wc,38.4822,-100.9069
KS,KANSAS,44,DDC,Lane,KS044,Lane,20101,C,wc,38.4814,-100.4664
KS,KANSAS,45,DDC,Ness,KS045,Ness,20135,C,wc,38.4795,-99.9162
KS,KANSAS,46,DDC,Rush,KS046,Rush,20165,C,cc,38.5233,-99.3092
KS,KANSAS,61,DDC,Hamilton,KS061,Hamilton,20075,M,sw,37.9991,-101.7913
KS,KANSAS,62,DDC,Kearny,KS062,Kearny,20093,C,sw,38.0002,-101.3199
KS,KANSAS,63,DDC,Finney,KS063,Finney,20055,C,sw,38.0444,-100.7369
KS,KANSAS,64,DDC,Hodgeman,KS064,Hodgeman,20083,C,sw,38.0875,-99.8979
KS,KANSAS,65,DDC,Pawnee,KS065,Pawnee,20145,C,sc,38.1814,-99.2368
KS,KANSAS,66,DDC,Stafford,KS066,Stafford,20185,C,sc,38.0311,-98.7175
KS,KANSAS,74,DDC,Stanton,KS074,Stanton,20187,C,sw,37.563,-101.7842
KS,KANSAS,75,DDC,Grant,KS075,Grant,20067,C,sw,37.5622,-101.308
KS,KANSAS,76,DDC,Haskell,KS076,Haskell,20081,C,sw,37.5623,-100.8712
KS,KANSAS,77,DDC,Gray,KS077,Gray,20069,C,sw,37.7382,-100.4378
KS,KANSAS,78,DDC,Ford,KS078,Ford,20057,C,sw,37.6917,-99.8879
KS,KANSAS,79,DDC,Edwards,KS079,Edwards,20047,C,sc,37.8876,-99.312
KS,KANSAS,80,DDC,Kiowa,KS080,Kiowa,20097,C,sc,37.5582,-99.286
KS,KANSAS,81,DDC,Pratt,KS081,Pratt,20151,C,sc,37.6478,-98.7396
KS,KANSAS,84,DDC,Morton,KS084,Morton,20129,C,sw,37.1914,-101.7993
KS,KANSAS,85,DDC,Stevens,KS085,Stevens,20189,C,sw,37.1924,-101.3121
KS,KANSAS,86,DDC,Seward,KS086,Seward,20175,C,sw,37.1933,-100.8513
KS,KANSAS,87,DDC,Meade,KS087,Meade,20119,C,sw,37.2382,-100.3662
KS,KANSAS,88,DDC,Clark,KS088,Clark,20025,C,sw,37.2355,-99.8203
KS,KANSAS,89,DDC,Comanche,KS089,Comanche,20033,C,sc,37.1913,-99.2719
KS,KANSAS,90,DDC,Barber,KS090,Barber,20007,C,sc,37.2289,-98.6848
MN,MINNESOTA,10,DLH,Koochiching,MN010,Koochiching,27071,C,nc,48.2422,-93.7874
MN,MINNESOTA,11,DLH,North St. Louis,MN011,St. Louis,27137,C,ne,48.139,-92.5294
MN,MINNESOTA,12,DLH,Northern Cook/Northern Lake,MN012,Cook,27031,C,ne,47.8238,-91.1981
MN,MINNESOTA,12,DLH,Northern Cook/Northern Lake,MN012,Lake,27075,C,ne,47.8238,-91.1981
MN,MINNESOTA,18,DLH,North Itasca,MN018,Itasca,27061,C,nc,47.6644,-93.7298
MN,MINNESOTA,19,DLH,Central St. Louis,MN019,St. Louis,27137,C,ne,47.4461,-92.4352
MN,MINNESOTA,20,DLH,Southern Lake/North Shore,MN020,Lake,27075,C,ne,47.282,-91.4479
MN,MINNESOTA,20,DLH,Southern Lake/North Shore,MN020,St. Louis,27137,C,ne,47.282,-91.4479
MN,MINNESOTA,21,DLH,Southern Cook/North Shore,MN021,Cook,27031,C,ne,47.8033,-90.4117
MN,MINNESOTA,25,DLH,North Cass,MN025,Cass,27021,C,nc,47.1039,-94.2344
MN,MINNESOTA,26,DLH,South Itasca,MN026,Itasca,27061,C,nc,47.2596,-93.4742
MN,MINNESOTA,33,DLH,South Cass,MN033,Cass,27021,C,nc,46.5646,-94.5522
MN,MINNESOTA,34,DLH,Crow Wing,MN034,Crow Wing,27035,C,ec,46.4824,-94.0709
MN,MINNESOTA,35,DLH,Northern Aitkin,MN035,Aitkin,27001,C,ec,46.826,-93.4185
MN,MINNESOTA,36,DLH,South Aitkin,MN036,Aitkin,27001,C,ec,46.4095,-93.4126
MN,MINNESOTA,37,DLH,Carlton/South St. Louis,MN037,Carlton,27017,C,ne,46.7516,-92.5801
MN,MINNESOTA,37,DLH,Carlton/South St. Louis,MN037,St. Louis,27137,C,ne,46.7516,-92.5801
MN,MINNESOTA,38,DLH,Pine,MN038,Pine,27115,C,ec,46.1208,-92.7414
WI,WISCONSIN,1,DLH,Douglas,WI001,Douglas,55031,C,nw,46.4309,-91.9147
WI,WISCONSIN,2,DLH,Bayfield,WI002,Bayfield,55007,C,nw,46.5241,-91.2006
WI,WISCONSIN,3,DLH,Ashland,WI003,Ashland,55003,C,nw,46.3148,-90.6781
WI,WISCONSIN,4,DLH,Iron,WI004,Iron,55051,C,nw,46.2623,-90.242
WI,WISCONSIN,6,DLH,Burnett,WI006,Burnett,55013,C,nw,45.8627,-92.3676
WI,WISCONSIN,7,DLH,Washburn,WI007,Washburn,55129,C,nw,45.8993,-91.7912
WI,WISCONSIN,8,DLH,Sawyer,WI008,Sawyer,55113,C,nw,45.88,-91.1447
WI,WISCONSIN,9,DLH,Price,WI009,Price,55099,C,nc,45.6804,-90.3614
IA,IOWA,4,DMX,Emmet,IA004,Emmet,19063,C,nw,43.3779,-94.6784
IA,IOWA,5,DMX,Kossuth,IA005,Kossuth,19109,C,nc,43.2042,-94.2067
IA,IOWA,6,DMX,Winnebago,IA006,Winnebago,19189,C,nc,43.3775,-93.7342
IA,IOWA,7,DMX,Worth,IA007,Worth,19195,C,nc,43.3774,-93.2609
IA,IOWA,15,DMX,Palo Alto,IA015,Palo Alto,19147,C,nw,43.082,-94.6782
IA,IOWA,16,DMX,Hancock,IA016,Hancock,19081,C,nc,43.0818,-93.7343
IA,IOWA,17,DMX,Cerro Gordo,IA017,Cerro Gordo,19033,C,nc,43.0816,-93.2608
IA,IOWA,23,DMX,Pocahontas,IA023,Pocahontas,19151,C,nw,42.7341,-94.6789
IA,IOWA,24,DMX,Humboldt,IA024,Humboldt,19091,C,nc,42.7764,-94.2073
IA,IOWA,25,DMX,Wright,IA025,Wright,19197,C,nc,42.7331,-93.7352
IA,IOWA,26,DMX,Franklin,IA026,Franklin,19069,C,nc,42.7325,-93.2624
IA,IOWA,27,DMX,Butler,IA027,Butler,19023,C,nc,42.7316,-92.7902
IA,IOWA,28,DMX,Bremer,IA028,Bremer,19017,C,ne,42.7747,-92.3182
IA,IOWA,33,DMX,Sac,IA033,Sac,19161,C,wc,42.3862,-95.1055
IA,IOWA,34,DMX,Calhoun,IA034,Calhoun,19025,C,wc,42.3852,-94.6405
IA,IOWA,35,DMX,Webster,IA035,Webster,19187,C,cc,42.4278,-94.1818
IA,IOWA,36,DMX,Hamilton,IA036,Hamilton,19079,C,cc,42.3837,-93.7068
IA,IOWA,37,DMX,Hardin,IA037,Hardin,19083,C,cc,42.3838,-93.2404
IA,IOWA,38,DMX,Grundy,IA038,Grundy,19075,C,cc,42.4019,-92.791
IA,IOWA,39,DMX,Black Hawk,IA039,Black Hawk,19013,C,ne,42.4701,-92.3085
IA,IOWA,44,DMX,Crawford,IA044,Crawford,19047,C,wc,42.0372,-95.3821
IA,IOWA,45,DMX,Carroll,IA045,Carroll,19027,C,wc,42.0362,-94.8607
IA,IOWA,46,DMX,Greene,IA046,Greene,19073,C,wc,42.0362,-94.3969
IA,IOWA,47,DMX,Boone,IA047,Boone,19015,C,cc,42.0366,-93.9318
IA,IOWA,48,DMX,Story,IA048,Story,19169,C,cc,42.0362,-93.4651
IA,IOWA,49,DMX,Marshall,IA049,Marshall,19127,C,cc,42.0358,-92.9988
IA,IOWA,50,DMX,Tama,IA050,Tama,19171,C,cc,42.0798,-92.5326
IA,IOWA,57,DMX,Audubon,IA057,Audubon,19009,C,wc,41.6846,-94.9058
IA,IOWA,58,DMX,Guthrie,IA058,Guthrie,19077,C,wc,41.6838,-94.501
IA,IOWA,59,DMX,Dallas,IA059,Dallas,19049,C,cc,41.6849,-94.0398
IA,IOWA,60,DMX,Polk,IA060,Polk,19153,C,cc,41.6855,-93.5734
IA,IOWA,61,DMX,Jasper,IA061,Jasper,19099,C,cc,41.686,-93.0537
IA,IOWA,62,DMX,Poweshiek,IA062,Poweshiek,19157,C,cc,41.6864,-92.5314
IA,IOWA,70,DMX,Cass,IA070,Cass,19029,C,sw,41.3315,-94.9278
IA,IOWA,71,DMX,Adair,IA071,Adair,19001,C,sw,41.3307,-94.471
IA,IOWA,72,DMX,Madison,IA072,Madison,19121,C,sc,41.3307,-94.0155
IA,IOWA,73,DMX,Warren,IA073,Warren,19181,C,sc,41.3343,-93.5614
IA,IOWA,74,DMX,Marion,IA074,Marion,19125,C,sc,41.3344,-93.0995
IA,IOWA,75,DMX,Mahaska,IA075,Mahaska,19123,C,sc,41.3351,-92.6409
IA,IOWA,81,DMX,Adams,IA081,Adams,19003,C,sw,41.029,-94.6992
IA,IOWA,82,DMX,Union,IA082,Union,19175,C,sc,41.0277,-94.2424
IA,IOWA,83,DMX,Clarke,IA083,Clarke,19039,C,sc,41.029,-93.7851
IA,IOWA,84,DMX,Lucas,IA084,Lucas,19117,C,sc,41.0293,-93.3277
IA,IOWA,85,DMX,Monroe,IA085,Monroe,19135,C,sc,41.0297,-92.869
IA,IOWA,86,DMX,Wapello,IA086,Wapello,19179,C,se,41.0306,-92.4095
IA,IOWA,92,DMX,Taylor,IA092,Taylor,19173,C,sw,40.7374,-94.6965
IA,IOWA,93,DMX,Ringgold,IA093,Ringgold,19159,C,sc,40.7352,-94.244
IA,IOWA,94,DMX,Decatur,IA094,Decatur,19053,C,sc,40.7377,-93.7863
IA,IOWA,95,DMX,Wayne,IA095,Wayne,19185,C,sc,40.7395,-93.3274
IA,IOWA,96,DMX,Appanoose,IA096,Appanoose,19007,C,sc,40.7432,-92.8687
IA,IOWA,97,DMX,Davis,IA097,Davis,19051,C,se,40.7477,-92.4097
MI,MICHIGAN,47,DTX,Midland,MI047,Midland,26111,E,se,43.6468,-84.3879
MI,MICHIGAN,48,DTX,Bay,MI048,Bay,26017,E,se,43.7072,-83.9921
MI,MICHIGAN,49,DTX,Huron,MI049,Huron,26063,E,se,43.8333,-83.0193
MI,MICHIGAN,53,DTX,Saginaw,MI053,Saginaw,26145,E,se,43.335,-84.0532
MI,MICHIGAN,54,DTX,Tuscola,MI054,Tuscola,26157,E,se,43.4641,-83.4167
MI,MICHIGAN,55,DTX,Sanilac,MI055,Sanilac,26151,E,se,43.4235,-82.8201
MI,MICHIGAN,60,DTX,Shiawassee,MI060,Shiawassee,26155,E,se,42.9537,-84.1467
MI,MICHIGAN,61,DTX,Genesee,MI061,Genesee,26049,E,se,43.0217,-83.7067
MI,MICHIGAN,62,DTX,Lapeer,MI062,Lapeer,26087,E,se,43.0901,-83.2218
MI,MICHIGAN,63,DTX,St. Clair,MI063,St. Clair,26147,E,se,42.9425,-82.682
MI,MICHIGAN,68,DTX,Livingston,MI068,Livingston,26093,E,se,42.603,-83.9115
MI,MICHIGAN,69,DTX,Oakland,MI069,Oakland,26125,E,se,42.6604,-83.3855
MI,MICHIGAN,70,DTX,Macomb,MI070,Macomb,26099,E,se,42.6956,-82.9322
MI,MICHIGAN,75,DTX,Washtenaw,MI075,Washtenaw,26161,E,se,42.2534,-83.8385
MI,MICHIGAN,76,DTX,Wayne,MI076,Wayne,26163,E,se,42.284,-83.2865
MI,MICHIGAN,82,DTX,Lenawee,MI082,Lenawee,26091,E,se,41.8951,-84.0664
MI,MICHIGAN,83,DTX,Monroe,MI083,Monroe,26115,E,se,41.9292,-83.5373
IA,IOWA,40,DVN,Buchanan,IA040,Buchanan,19019,C,ne,42.4707,-91.8379
IA,IOWA,41,DVN,Delaware,IA041,Delaware,19055,C,ne,42.4711,-91.3673
IA,IOWA,42,DVN,Dubuque,IA042,Dubuque,19061,C,ne,42.4688,-90.8824
IA,IOWA,51,DVN,Benton,IA051,Benton,19011,C,ec,42.0801,-92.0657
IA,IOWA,52,DVN,Linn,IA052,Linn,19113,C,ec,42.0789,-91.5989
IA,IOWA,53,DVN,Jones,IA053,Jones,19105,C,ec,42.1212,-91.1314
IA,IOWA,54,DVN,Jackson,IA054,Jackson,19097,C,ec,42.1717,-90.5742
IA,IOWA,63,DVN,Iowa,IA063,Iowa,19095,C,ec,41.6863,-92.0656
IA,IOWA,64,DVN,Johnson,IA064,Johnson,19103,C,ec,41.6715,-91.5881
IA,IOWA,65,DVN,Cedar,IA065,Cedar,19031,C,ec,41.7723,-91.1324
IA,IOWA,66,DVN,Clinton,IA066,Clinton,19045,C,ec,41.898,-90.532
IA,IOWA,67,DVN,Muscatine,IA067,Muscatine,19139,C,ec,41.4839,-91.1127
IA,IOWA,68,DVN,Scott,IA068,Scott,19163,C,ec,41.6371,-90.6232
IA,IOWA,76,DVN,Keokuk,IA076,Keokuk,19107,C,se,41.3364,-92.1787
IA,IOWA,77,DVN,Washington,IA077,Washington,19183,C,se,41.3356,-91.7179
IA,IOWA,78,DVN,Louisa,IA078,Louisa,19115,C,se,41.2185,-91.2597
IA,IOWA,87,DVN,Jefferson,IA087,Jefferson,19101,C,se,41.0318,-91.9489
IA,IOWA,88,DVN,Henry,IA088,Henry,19087,C,se,40.9879,-91.5446
IA,IOWA,89,DVN,Des Moines,IA089,Des Moines,19057,C,se,40.9232,-91.1815
IA,IOWA,98,DVN,Van Buren,IA098,Van Buren,19177,C,se,40.7532,-91.95
IA,IOWA,99,DVN,Lee,IA099,Lee,19111,C,se,40.642,-91.4792
IL,ILLINOIS,1,DVN,Jo Daviess,IL001,Jo Daviess,17085,C,nw,42.3657,-90.2123
IL,ILLINOIS,2,DVN,Stephenson,IL002,Stephenson,17177,C,nw,42.3517,-89.6625
IL,ILLINOIS,7,DVN,Carroll,IL007,Carroll,17015,C,nw,42.0688,-89.9345
IL,ILLINOIS,9,DVN,Whiteside,IL009,Whiteside,17195,C,nw,41.7563,-89.9141
IL,ILLINOIS,15,DVN,Rock Island,IL015,Rock Island,17161,C,nw,41.4674,-90.5674
IL,ILLINOIS,16,DVN,Henry,IL016,Henry,17073,C,nw,41.3531,-90.1314
IL,ILLINOIS,17,DVN,Bureau,IL017,Bureau,17011,C,nc,41.4041,-89.5287
IL,ILLINOIS,18,DVN,Putnam,IL018,Putnam,17155,C,nc,41.2045,-89.2858
IL,ILLINOIS,24,DVN,Mercer,IL024,Mercer,17131,C,nw,41.2053,-90.7414
IL,ILLINOIS,25,DVN,Henderson,IL025,Henderson,17071,C,wc,40.8181,-90.9251
IL,ILLINOIS,26,DVN,Warren,IL026,Warren,17187,C,wc,40.8488,-90.615
IL,ILLINOIS,34,DVN,Hancock,IL034,Hancock,17067,C,wc,40.4037,-91.1647
IL,ILLINOIS,35,DVN,McDonough,IL035,McDonough,17109,C,wc,40.4562,-90.678
MO,MISSOURI,9,DVN,Scotland,MO009,Scotland,29199,C,ne,40.4526,-92.1471
MO,MISSOURI,10,DVN,Clark,MO010,Clark,29045,C,ne,40.4103,-91.7384
KS,KANSAS,25,EAX,Atchison,KS025,Atchison,20005,C,ne,39.532,-95.3129
KS,KANSAS,57,EAX,Miami,KS057,Miami,20121,C,ec,38.5636,-94.8381
KS,KANSAS,60,EAX,Linn,KS060,Linn,20107,C,ec,38.2123,-94.8429
KS,KANSAS,102,EAX,Doniphan,KS102,Doniphan,20043,C,ne,39.7885,-95.147
KS,KANSAS,103,EAX,Leavenworth,KS103,Leavenworth,20103,C,ne,39.1993,-95.0379
KS,KANSAS,104,EAX,Wyandotte,KS104,Wyandotte,20209,C,ne,39.1145,-94.7646
KS,KANSAS,105,EAX,Johnson,KS105,Johnson,20091,C,ec,38.8838,-94.8223
MO,MISSOURI,1,EAX,Atchison,MO001,Atchison,29005,C,nw,40.4307,-95.427
MO,MISSOURI,2,EAX,Nodaway,MO002,Nodaway,29147,C,nw,40.3607,-94.8834
MO,MISSOURI,3,EAX,Worth,MO003,Worth,29227,C,nw,40.4791,-94.4222
MO,MISSOURI,4,EAX,Gentry,MO004,Gentry,29075,C,nw,40.2121,-94.4099
MO,MISSOURI,5,EAX,Harrison,MO005,Harrison,29081,C,nc,40.3547,-93.9921
MO,MISSOURI,6,EAX,Mercer,MO006,Mercer,29129,C,nc,40.4223,-93.5685
MO,MISSOURI,7,EAX,Putnam,MO007,Putnam,29171,C,nc,40.4789,-93.0161
MO,MISSOURI,8,EAX,Schuyler,MO008,Schuyler,29197,C,ne,40.4702,-92.5209
MO,MISSOURI,11,EAX,Holt,MO011,Holt,29087,C,nw,40.0946,-95.215
MO,MISSOURI,12,EAX,Andrew,MO012,Andrew,29003,C,nw,39.9834,-94.802
MO,MISSOURI,13,EAX,De Kalb,MO013,DeKalb,29063,C,nw,39.8932,-94.4047
MO,MISSOURI,14,EAX,Daviess,MO014,Daviess,29061,C,nc,39.9607,-93.9855
MO,MISSOURI,15,EAX,Grundy,MO015,Grundy,29079,C,nc,40.114,-93.5653
MO,MISSOURI,16,EAX,Sullivan,MO016,Sullivan,29211,C,nc,40.2107,-93.1115
MO,MISSOURI,17,EAX,Adair,MO017,Adair,29001,C,ne,40.1906,-92.6007
MO,MISSOURI,20,EAX,Buchanan,MO020,Buchanan,29021,C,nw,39.6598,-94.8062
MO,MISSOURI,21,EAX,Clinton,MO021,Clinton,29049,C,nw,39.6018,-94.4046
MO,MISSOURI,22,EAX,Caldwell,MO022,Caldwell,29025,C,nc,39.6557,-93.9828
MO,MISSOURI,23,EAX,Livingston,MO023,Livingston,29117,C,nc,39.7821,-93.5483
MO,MISSOURI,24,EAX,Linn,MO024,Linn,29115,C,nc,39.8702,-93.1072
MO,MISSOURI,25,EAX,Macon,MO025,Macon,29121,C,nc,39.8308,-92.5646
MO,MISSOURI,28,EAX,Platte,MO028,Platte,29165,C,wc,39.3804,-94.7736
MO,MISSOURI,29,EAX,Clay,MO029,Clay,29047,C,wc,39.3105,-94.4208
MO,MISSOURI,30,EAX,Ray,MO030,Ray,29177,C,wc,39.3524,-93.9899
MO,MISSOURI,31,EAX,Carroll,MO031,Carroll,29033,C,nc,39.4268,-93.5051
MO,MISSOURI,32,EAX,Chariton,MO032,Chariton,29041,C,nc,39.5145,-92.9626
MO,MISSOURI,33,EAX,Randolph,MO033,Randolph,29175,C,nc,39.4402,-92.4971
MO,MISSOURI,37,EAX,Jackson,MO037,Jackson,29095,C,wc,39.0085,-94.3461
MO,MISSOURI,38,EAX,Lafayette,MO038,Lafayette,29107,C,wc,39.0656,-93.7855
MO,MISSOURI,39,EAX,Saline,MO039,Saline,29195,C,cc,39.1366,-93.2022
MO,MISSOURI,40,EAX,Howard,MO040,Howard,29089,C,cc,39.1427,-92.6958
MO,MISSOURI,43,EAX,Cass,MO043,Cass,29037,C,wc,38.647,-94.3548
MO,MISSOURI,44,EAX,Johnson,MO044,Johnson,29101,C,wc,38.7441,-93.8063
MO,MISSOURI,45,EAX,Pettis,MO045,Pettis,29159,C,cc,38.7283,-93.2851
MO,MISSOURI,46,EAX,Cooper,MO046,Cooper,29053,C,cc,38.8439,-92.8103
MO,MISSOURI,53,EAX,Bates,MO053,Bates,29013,C,wc,38.2573,-94.34
MO,MISSOURI,54,EAX,Henry,MO054,Henry,29083,C,wc,38.3852,-93.7927
CA,CALIFORNIA,101,EKA,Coastal Del Norte,CA101,Del Norte,6015,P,nw,41.0243,-124.0956
CA,CALIFORNIA,102,EKA,Del Norte Interior,CA102,Del Norte,6015,P,nw,41.0243,-124.0956
CA,CALIFORNIA,103,EKA,Northern Humboldt Coast,CA103,Humboldt,6023,P,nw,41.0243,-124.0956
CA,CALIFORNIA,104,EKA,Southwestern Humboldt,CA104,Humboldt,6023,P,nw,41.0243,-124.0956
CA,CALIFORNIA,105,EKA,Northern Humboldt Interior,CA105,Humboldt,6023,P,nw,41.0243,-124.0956
CA,CALIFORNIA,106,EKA,Southern Humboldt Interior,CA106,Humboldt,6023,P,nw,41.0243,-124.0956
CA,CALIFORNIA,107,EKA,Northern Trinity,CA107,Trinity,6105,P,nw,40.7088,-123.111
CA,CALIFORNIA,108,EKA,Southern Trinity,CA108,Trinity,6105,P,nw,40.7088,-123.111
CA,CALIFORNIA,109,EKA,Mendocino Coast,CA109,Mendocino,6045,P,nw,39.3778,-123.7271
CA,CALIFORNIA,110,EKA,Northwestern Mendocino Interior,CA110,Mendocino,6045,P,nw,39.6359,-123.4371
CA,CALIFORNIA,111,EKA,Northeastern Mendocino Interior,CA111,Mendocino,6045,P,nw,39.7603,-123.1396
CA,CALIFORNIA,112,EKA,Southwestern Mendocino Interior,CA112,Mendocino,6045,P,nw,39.1561,-123.4915
CA,CALIFORNIA,113,EKA,Southeastern Mendocino Interior,CA113,Mendocino,6045,P,nw,39.0904,-123.1953
CA,CALIFORNIA,114,EKA,Northern Lake County,CA114,Lake,6033,P,cc,39.3619,-122.8628
CA,CALIFORNIA,115,EKA,Southern Lake County,CA115,Lake,6033,P,cc,38.9779,-122.7022
NM,NEW MEXICO,401,EPZ,Upper Gila River Valley,NM401,Grant,35017,M,sw,33.0652,-109.0457
NM,NEW MEXICO,401,EPZ,Upper Gila River Valley,NM401,Hidalgo,35023,M,sw,33.0652,-109.0457
NM,NEW MEXICO,403,EPZ,Southern Gila Foothills/Mimbres Valley,NM403,Grant,35017,M,sw,32.5961,-108.0435
NM,NEW MEXICO,403,EPZ,Southern Gila Foothills/Mimbres Valley,NM403,Luna,35029,M,sw,32.5961,-108.0435
NM,NEW MEXICO,404,EPZ,Southwest Desert/Lower Gila River Valley,NM404,Grant,35017,M,sw,32.984,-109.0449
NM,NEW MEXICO,404,EPZ,Southwest Desert/Lower Gila River Valley,NM404,Hidalgo,35023,M,sw,32.984,-109.0449
NM,NEW MEXICO,405,EPZ,Lowlands of the Bootheel,NM405,Grant,35017,M,sw,31.7623,-108.5699
NM,NEW MEXICO,405,EPZ,Lowlands of the Bootheel,NM405,Hidalgo,35023,M,sw,31.7623,-108.5699
NM,NEW MEXICO,406,EPZ,Uplands of the Bootheel,NM406,Hidalgo,35023,M,sw,31.5516,-108.8399
NM,NEW MEXICO,407,EPZ,Southwest Desert/Mimbres Basin,NM407,Grant,35017,M,sw,32.1585,-107.7431
NM,NEW MEXICO,407,EPZ,Southwest Desert/Mimbres Basin,NM407,Luna,35029,M,sw,32.1585,-107.7431
NM,NEW MEXICO,408,EPZ,Eastern Black Range Foothills,NM408,Grant,35017,M,sw,33.0357,-107.5193
NM,NEW MEXICO,408,EPZ,Eastern Black Range Foothills,NM408,Luna,35029,M,sw,33.0357,-107.5193
NM,NEW MEXICO,408,EPZ,Eastern Black Range Foothills,NM408,Sierra,35051,M,sc,33.0357,-107.5193
NM,NEW MEXICO,409,EPZ,Sierra County Lakes,NM409,Sierra,35051,M,sc,33.1033,-107.0436
NM,NEW MEXICO,410,EPZ,Northern Dona Ana County,NM410,Dona Ana,35013,M,sc,32.6132,-106.9177
NM,NEW MEXICO,411,EPZ,Southern Dona Ana County/Mesilla Valley,NM411,Dona Ana,35013,M,sc,32.1002,-106.9151
NM,NEW MEXICO,414,EPZ,West Slopes Sacramento Mountains Below 7500 Feet,NM414,Otero,35035,M,sc,32.8801,-105.7623
NM,NEW MEXICO,415,EPZ,Sacramento Mountains Above 7500 Feet,NM415,Otero,35035,M,sc,32.9911,-105.6803
NM,NEW MEXICO,416,EPZ,East Slopes Sacramento Mountains Below 7500 Feet,NM416,Otero,35035,M,sc,32.9357,-105.4385
NM,NEW MEXICO,417,EPZ,Otero Mesa,NM417,Otero,35035,M,sc,32.261,-105.4233
NM,NEW MEXICO,425,EPZ,Central Grant County/Silver City Area ,NM425,Grant,35017,M,sw,32.76,-108.0997
NM,NEW MEXICO,426,EPZ,Southern Gila Region Highlands/Black Range ,NM426,Grant,35017,M,sw,33.0716,-108.0453
NM,NEW MEXICO,426,EPZ,Southern Gila Region Highlands/Black Range ,NM426,Sierra,35051,M,sw,33.0716,-108.0453
NM,NEW MEXICO,427,EPZ,West Central Tularosa Basin/White Sands ,NM427,Sierra,35051,M,sc,32.7419,-106.4202
NM,NEW MEXICO,427,EPZ,West Central Tularosa Basin/White Sands ,NM427,Dona Ana,35013,M,sc,32.7419,-106.4202
NM,NEW MEXICO,427,EPZ,West Central Tularosa Basin/White Sands ,NM427,Otero,35035,M,sc,32.7419,-106.4202
NM,NEW MEXICO,428,EPZ,East Central Tularosa Basin/Alamogordo ,NM428,Otero,35035,M,sc,33.0694,-106.0993
NM,NEW MEXICO,429,EPZ,Southeast Tularosa Basin ,NM429,Otero,35035,M,sc,32.3354,-106.1094
TX,TEXAS,418,EPZ,Western El Paso County,TX418,El Paso,48141,M,sw,31.8933,-106.5545
TX,TEXAS,419,EPZ,Eastern/Central El Paso County,TX419,El Paso,48141,M,sw,31.8096,-106.2948
TX,TEXAS,420,EPZ,Northern Hudspeth Highlands/Hueco Mountains,TX420,El Paso,48141,M,sw,31.7056,-105.7878
TX,TEXAS,420,EPZ,Northern Hudspeth Highlands/Hueco Mountains,TX420,Hudspeth,48229,M,sw,31.7056,-105.7878
TX,TEXAS,421,EPZ,Salt Basin,TX421,Hudspeth,48229,M,sw,31.7396,-105.2179
TX,TEXAS,422,EPZ,Southern Hudspeth Highlands,TX422,Hudspeth,48229,M,sw,31.1872,-105.1931
TX,TEXAS,423,EPZ,Rio Grande Valley of Eastern El Paso/Western Hudspeth Counties,TX423,El Paso,48141,M,sw,31.3635,-105.8909
TX,TEXAS,423,EPZ,Rio Grande Valley of Eastern El Paso/Western Hudspeth Counties,TX423,Hudspeth,48229,M,sw,31.3635,-105.8909
TX,TEXAS,424,EPZ,Rio Grande Valley of Eastern Hudspeth County,TX424,Hudspeth,48229,M,sw,30.8825,-105.2707
TX,TEXAS,171,EWX,Llano,TX171,Llano,48299,C,sc,30.7056,-98.684
TX,TEXAS,172,EWX,Burnet,TX172,Burnet,48053,C,sc,30.7883,-98.1824
TX,TEXAS,173,EWX,Williamson,TX173,Williamson,48491,C,sc,30.6481,-97.6008
TX,TEXAS,183,EWX,Val Verde,TX183,Val Verde,48465,C,sc,29.893,-101.1517
TX,TEXAS,184,EWX,Edwards,TX184,Edwards,48137,C,sc,29.9826,-100.3047
TX,TEXAS,185,EWX,Real,TX185,Real,48385,C,sc,29.8318,-99.8221
TX,TEXAS,186,EWX,Kerr,TX186,Kerr,48265,C,sc,30.0615,-99.3501
TX,TEXAS,187,EWX,Bandera,TX187,Bandera,48019,C,sc,29.7472,-99.2463
TX,TEXAS,188,EWX,Gillespie,TX188,Gillespie,48171,C,sc,30.3181,-98.9464
TX,TEXAS,189,EWX,Kendall,TX189,Kendall,48259,C,sc,29.9447,-98.7116
TX,TEXAS,190,EWX,Blanco,TX190,Blanco,48031,C,sc,30.2664,-98.3998
TX,TEXAS,191,EWX,Hays,TX191,Hays,48209,C,sc,30.0582,-98.0311
TX,TEXAS,192,EWX,Travis,TX192,Travis,48453,C,sc,30.3347,-97.7819
TX,TEXAS,193,EWX,Bastrop,TX193,Bastrop,48021,C,sc,30.1036,-97.3121
TX,TEXAS,194,EWX,Lee,TX194,Lee,48287,C,sc,30.3107,-96.9657
TX,TEXAS,202,EWX,Kinney,TX202,Kinney,48271,C,sc,29.3502,-100.418
TX,TEXAS,203,EWX,Uvalde,TX203,Uvalde,48463,C,sc,29.3573,-99.7622
TX,TEXAS,204,EWX,Medina,TX204,Medina,48325,C,sc,29.3557,-99.1101
TX,TEXAS,205,EWX,Bexar,TX205,Bexar,48029,C,sc,29.4491,-98.5199
TX,TEXAS,206,EWX,Comal,TX206,Comal,48091,C,sc,29.8082,-98.2782
